Latitude,Longitude,STATION_NAME,STATION_CODE,DIVISION,STATE,CATEGORY
18.0120969,83.2712557,ALAMANDA,ALM,WAT,ANDHRA PRADESH,E
22.3014756,70.8045659,BARUVA,BAV,KUR,ANDHRA PRADESH,E
15.9128998,79.7399875,BODDAVARA,BDVR,WAT,ANDHRA PRADESH,E
18.262263,83.0766966,CHIMIDIPALLI,CMDP,WAT,ANDHRA PRADESH,E
17.7183672,83.3228225,DONKINAVALASA,DNV,WAT,ANDHRA PRADESH,E
18.3704552,83.8580709,DUSI,DSI,WAT,ANDHRA PRADESH,E
18.2843226,83.3364141,GAJAPATINAGARAM,GPI,WAT,ANDHRA PRADESH,E
12.9492303,78.2526341,GARIVIDI,GVI,WAT,ANDHRA PRADESH,E
15.9128998,79.7399875,GARUDABILLI,GRBL,WAT,ANDHRA PRADESH,E
15.9128998,79.7399875,GORAPUR,GPJ,WAT,ANDHRA PRADESH,E
15.9128998,79.7399875,GOTLAM,GTLM,WAT,ANDHRA PRADESH,E
15.9128998,79.7399875,GUMADA,GMDA,WAT,ANDHRA PRADESH,E
19.028053,84.612859,JHADUPUDI,JPI,KUR,ANDHRA PRADESH,E
15.9128998,79.7399875,JIMIDIPETA,JMPT,WAT,ANDHRA PRADESH,E
13.228057,79.262893,KANTAKAPALLI,KPL,WAT,ANDHRA PRADESH,E
15.9128998,79.7399875,KARAKAVALASA,KVLS,WAT,ANDHRA PRADESH,E
15.9128998,79.7399875,KOMATIPALLI,KMX,WAT,ANDHRA PRADESH,E
18.0535661,83.3193971,KORUKONDA,KUK,WAT,ANDHRA PRADESH,E
18.9666377,83.4406847,KUNERU,KNRT,WAT,ANDHRA PRADESH,E
15.9128998,79.7399875,MALLIVUDU,MVW,WAT,ANDHRA PRADESH,E
18.8403548,84.4939905,MANDASA ROAD,MMS,KUR,ANDHRA PRADESH,E
18.1882433,83.4592021,NELLIMARLA,NML,WAT,ANDHRA PRADESH,E
15.9128998,79.7399875,PADUA,PFU,WAT,ANDHRA PRADESH,E
17.8135527,83.1948795,PENDURTI,PDT,WAT,ANDHRA PRADESH,E
14.8301055,79.6850395,PUNDI,PUN,WAT,ANDHRA PRADESH,E
17.6922719,83.0044995,SETANAGARAM,SNM,WAT,ANDHRA PRADESH,E
15.9128998,79.7399875,SHIVALINGAMPURAM,SLPM,WAT,ANDHRA PRADESH,E
18.360291,83.681375,SIGADAM,SGDM,WAT,ANDHRA PRADESH,E
15.9128998,79.7399875,SIMILIGUDA,SMLG,WAT,ANDHRA PRADESH,E
19.1260762,84.6001548,SRUNGAVARAPUKOTA,SUP,WAT,ANDHRA PRADESH,E
18.8088561,84.4670722,SUMMADEVI,SUDV,KUR,ANDHRA PRADESH,E
18.2176849,83.0424746,TYADA,TXD,WAT,ANDHRA PRADESH,E
18.4353064,83.9891187,URLAM,ULM,WAT,ANDHRA PRADESH,E
18.75644,84.422423,AKANAPET                                          ,AKE ,HYB       ,ANDHRA PRADESH,E
15.8953724,78.0465592,ALAMPUR ROAD                                      ,ALPR,HYB       ,ANDHRA PRADESH,E
14.7104835,79.9889412,ALLURU ROAD                                       ,AXR ,BZA       ,ANDHRA PRADESH,E
15.5966625,80.1489841,AMMANABROLU                                       ,ANB ,BZA       ,ANDHRA PRADESH,E
13.9999655,79.302365,ANANTHARAJUPET                                    ,ANE ,GTL,ANDHRA PRADESH,E
15.9694612,80.5139216,APPIKATLA                                         ,APL ,BZA       ,ANDHRA PRADESH,E
15.9128998,79.7399875,ARATLAKATTA                                       ,AKAH,BZA       ,ANDHRA PRADESH,E
15.9128998,79.7399875,ARAVALLI                                          ,AVLI,BZA       ,ANDHRA PRADESH,E
17.4369259,78.4894015,ASIFABAD ROAD                                     ,ASAF,SC        ,ANDHRA PRADESH,E
17.6776505,82.609339,ASPARI                                            ,ASP ,GTL,ANDHRA PRADESH,E
16.680044,81.6162235,ATTILI                                            ,AL  ,BZA       ,ANDHRA PRADESH,E
16.8282649,81.4737833,BADAMPUDI                                         ,BPY ,BZA       ,ANDHRA PRADESH,E
16.2970159,80.4449603,BALANAGAR                                         ,BABR,HYB       ,ANDHRA PRADESH,E
17.4032537,78.4829916,BANDARUPALLE                                      ,BDPL,GNT       ,ANDHRA PRADESH,E
15.1631319,77.2748169,BANTNAHAL                                        ,BLL ,GTL,ANDHRA PRADESH,E
16.5104396,80.6269499,BAYYAVARAM                                        ,BVM ,BZA       ,ANDHRA PRADESH,E
15.9128998,79.7399875,BELLAMKONDA                                       ,BMKD,GNT       ,ANDHRA PRADESH,E
16.1305229,80.5816681,BETAMCHERLA                                       ,BMH ,GTL,ANDHRA PRADESH,E
15.9128998,79.7399875,BETHAMPUDI                                        ,BTPD,SC        ,ANDHRA PRADESH,E
15.1588998,77.3185587,BEVINAHALU                                        ,BNL ,GTL,ANDHRA PRADESH,E
14.4090992,78.9695663,BHAKARAPET                                        ,BKPT,GTL,ANDHRA PRADESH,E
16.105886,80.788032,BHATTIPROLU                                       ,BQU ,GNT       ,ANDHRA PRADESH,E
16.4908095,80.6712368,BHIKNUR                                           ,BKU ,HYB       ,ANDHRA PRADESH,E
16.8082488,81.2613475,BHIMA DOLU                                        ,BMD ,BZA       ,ANDHRA PRADESH,E
17.4706714,78.7945463,BIBINAGAR                                         ,BN  ,SC        ,ANDHRA PRADESH,E
16.9692674,82.0318529,BIKKAVOLU                                         ,BVL ,BZA       ,ANDHRA PRADESH,E
15.9128998,79.7399875,BISUGIRSHARIF                                     ,BGSF,SC        ,ANDHRA PRADESH,E
14.7685145,79.983436,BITRAGUNTA                                        ,BTTR,BZA       ,ANDHRA PRADESH,E
18.6587332,77.8954804,BODHAN                                            ,BDHN,HYB       ,ANDHRA PRADESH,E
15.9128998,79.7399875,BOGOLU                                            ,BVO ,HYB       ,ANDHRA PRADESH,E
17.6823702,83.2161442,BONAKALU                                          ,BKL ,SC        ,ANDHRA PRADESH,E
17.3428348,78.4144168,BUDVEL                                            ,BDVL,HYB       ,ANDHRA PRADESH,E
15.4864998,78.195169,BUGGANAPALLI   CEMENT NAGAR                                  ,BEY ,GTL,ANDHRA PRADESH,E
17.4378381,82.0754408,CAVALARY BARRACKS                                 ,CVB ,HYB       ,ANDHRA PRADESH,E
16.9712969,81.6909924,CHAGALLU                                          ,CU  ,BZA       ,ANDHRA PRADESH,E
15.9128998,79.7399875,CHALLAVARIPALLI,CLPE,GTL,ANDHRA PRADESH,E
13.628347,79.4199775,CHANDRAGIRI                                       ,CGI ,GTL,ANDHRA PRADESH,E
16.9538599,82.2405709,CHARLAPALLI                                       ,CHZ ,SC        ,ANDHRA PRADESH,E
16.8196589,81.3959348,CHEBROL                                           ,CEL ,BZA       ,ANDHRA PRADESH,E
16.314209,80.435028,CHEEKATEEGALAPALEM                                 ,CEM ,GNT       ,ANDHRA PRADESH,E
15.9128998,79.7399875,CHELMA                                            ,CMZ ,GNT       ,ANDHRA PRADESH,E
16.5030384,80.6670703,CHERUVU MADHAVARAM                                ,CVV ,SC        ,ANDHRA PRADESH,E
14.5182844,77.6831675,CHIGICHERLA                                       ,CCA ,GTL,ANDHRA PRADESH,E
16.2026469,81.1620878,CHILAKALAPUDI                                  ,CLU ,BZA       ,ANDHRA PRADESH,E
13.2038078,78.7426615,CHIMALPAHAD                                       ,CMW ,SC        ,ANDHRA PRADESH,E
15.6894342,80.2366291,CHINNA GANJAM                                     ,CJM ,BZA       ,ANDHRA PRADESH,E
16.223742,80.656269,CHINNARAVURU ,CIV ,GNT       ,ANDHRA PRADESH,E
16.3105866,80.4267277,CHINNEKUNTAPALLE                                  ,CCI ,GTL,ANDHRA PRADESH,E
14.245567,79.2430973,CHINTAKANI                                        ,CKN ,SC        ,ANDHRA PRADESH,E
17.7340396,83.3184913,CHINTALPALLI                                      ,CLE ,SC        ,ANDHRA PRADESH,E
17.7401642,83.3384885,CHITGIDDA                                         ,CTF ,SC        ,ANDHRA PRADESH,E
15.8313436,80.3543806,CHITYALA                                          ,CTYL,GNT       ,ANDHRA PRADESH,E
13.213386,79.094836,DAMALACHERUVU                                     ,DCU ,GTL,ANDHRA PRADESH,E
16.7817773,81.1807278,DENDULURU                                         ,DEL ,BZA       ,ANDHRA PRADESH,E
17.6621798,78.6155623,DEVARKADRA                                       ,DKC ,HYB       ,ANDHRA PRADESH,E
13.1783097,79.0984833,DHARUR                                            ,DRR ,SC        ,ANDHRA PRADESH,E
15.9128998,79.7399875,DICHPALLI                                         ,DHP ,HYB       ,ANDHRA PRADESH,E
15.3950321,78.8261421,DIGUVAMETTA                                       ,DMT ,GNT       ,ANDHRA PRADESH,E
16.4688884,80.9391765,DOSAPADU                                          ,DPD ,BZA       ,ANDHRA PRADESH,E
15.9128998,79.7399875,DRAKSHARAMA,DKSA,BZA       ,ANDHRA PRADESH,E
16.328956,80.623775,DUGGIRALA                                         ,DIG ,BZA       ,ANDHRA PRADESH,E
28.6281385,77.110951,DUPADU                                            ,DUU ,HYB       ,ANDHRA PRADESH,E
15.329676,77.5910282,EDDULADODDI                                       ,EDD ,GTL,ANDHRA PRADESH,E
16.2169886,79.7796839,ERRUPALEM                                         ,YP  ,SC        ,ANDHRA PRADESH,E
15.7779056,79.4019844,GAJJALAKONDA                                      ,GJJ ,GNT       ,ANDHRA PRADESH,E
14.1486494,79.8456227,GANGADHARA                                        ,GDRA,SC        ,ANDHRA PRADESH,E
15.9128998,79.7399875,GANGAVARAM                                        ,GVMH,BZA       ,ANDHRA PRADESH,E
17.4120493,78.508937,GANGAYAPALLI                                      ,GPY ,GTL,ANDHRA PRADESH,E
16.7449467,80.5196676,GANGINENI                                         ,GNN ,SC        ,ANDHRA PRADESH,E
16.513696,80.6270579,GANNAVARAM                                        ,GWM ,BZA       ,ANDHRA PRADESH,E
20.2752567,73.0027982,GARLA                                             ,GLA ,SC        ,ANDHRA PRADESH,E
14.8274871,77.5925667,GARLADINNE                                        ,GDE ,GTL,ANDHRA PRADESH,E
15.9128998,79.7399875,GAZULAPALLI                                       ,GZL ,GNT       ,ANDHRA PRADESH,E
17.4528722,78.6782751,GHATKESAR                                         ,GT  ,SC        ,ANDHRA PRADESH,E
15.9128998,79.7399875,GODAMGURA                                         ,GDQ ,SC        ,ANDHRA PRADESH,E
14.2697498,79.1083397,GOLLAPALLI                                        ,GLY ,HYB       ,ANDHRA PRADESH,E
17.1515223,82.290408,GOLLAPROLU                                        ,GLP ,BZA       ,ANDHRA PRADESH,E
16.3486424,81.0465703,GUDLAVALLERU                                 ,GVL ,BZA       ,ANDHRA PRADESH,E
18.1977443,82.3497753,GULAPALAYAM                                 ,GPU ,GTL,ANDHRA PRADESH,E
15.9128998,79.7399875,GULLAGUDA                                         ,GGD ,SC        ,ANDHRA PRADESH,E
17.4097661,82.6339299,GULLIPADU                                         ,GLU ,BZA       ,ANDHRA PRADESH,E
13.652889,79.15786,GUNDLA POCHAMPALLI                                 ,GDPL,HYB       ,ANDHRA PRADESH,E
15.5471941,78.2440332,GUNDLAKAMMA                                       ,GKM ,GNT       ,ANDHRA PRADESH,E
16.5146977,80.6226843,GUNDRATI MADUGU                                   ,GUU ,SC        ,ANDHRA PRADESH,E
17.316278,82.489435,HAMSAVARAM                                        ,HVM ,BZA       ,ANDHRA PRADESH,E
18.0779836,79.5023804,HASANPARTI ROAD                                   ,HSP ,SC        ,ANDHRA PRADESH,E
17.341738,78.488519,HASTAVARAM                                        ,HAQ,GTL,ANDHRA PRADESH,E
17.4819195,78.4128446,INDALVAI                                          ,IDL ,HYB       ,ANDHRA PRADESH,E
13.048636,80.208306,INTEKANNE                                         ,INK ,SC        ,ANDHRA PRADESH,E
15.8916886,77.263414,IRNAGALLU                                         ,EGU ,GTL,ANDHRA PRADESH,E
16.547525,80.6388206,ISIVI                                             ,ESV ,GTL,ANDHRA PRADESH,E
16.718058,81.119576,ITIKYALA                                          ,IKI ,HYB       ,ANDHRA PRADESH,E
15.5519958,79.0721035,J.KRISHNAPURAM                                 ,JBK ,GNT       ,ANDHRA PRADESH,E
15.1093947,77.7270806,JAKKALACHERUVU                                    ,JKO ,GTL,ANDHRA PRADESH,E
17.3610392,82.5433751,JANKAMPET JN.                                     ,JKM ,HYB       ,ANDHRA PRADESH,E
17.7261223,83.3003254,JUTURU                                            ,JUR ,GTL,ANDHRA PRADESH,E
16.5048477,80.6339112,KADIYAM                                           ,KYM ,BZA       ,ANDHRA PRADESH,E
17.4961282,78.396505,KALAMALLA                                         ,KMH ,GTL,ANDHRA PRADESH,E
16.422562,80.564532,KALASAMUNDRAM                                     ,KCM ,GTL,ANDHRA PRADESH,E
16.8373839,81.677556,KALDHARI                                          ,KLDI,BZA       ,ANDHRA PRADESH,E
13.6438536,78.800233,KALIKIRI                                          ,KCI ,GTL,ANDHRA PRADESH,E
14.9250339,77.5813814,KALLURU                                           ,KLU ,GTL,ANDHRA PRADESH,E
14.9083332,77.9820621,KAMALAPURAM                                       ,KKM ,GTL,ANDHRA PRADESH,E
14.4516596,78.8292391,KARAPA                                            ,KRAP,BZA       ,ANDHRA PRADESH,E
17.8916901,83.1859179,KARAVADI                                          ,KRV ,BZA       ,ANDHRA PRADESH,E
17.4297816,78.489461,KAREPALLI                                         ,KRA ,SC        ,ANDHRA PRADESH,E
18.4590394,79.1423151,KARIMNAGAR                                        ,KRMR,SC        ,ANDHRA PRADESH,E
15.9128998,79.7399875,KAUKUNTLA                                         ,KQQ ,HYB       ,ANDHRA PRADESH,E
16.3285649,81.0694287,KAVUTARAM                                         ,KVM ,BZA       ,ANDHRA PRADESH,E
17.9747022,79.5111795,KAZIPET TOWN,KZJT,SC        ,ANDHRA PRADESH,E
15.9128998,79.7399875,KHADERPET                                         ,KDT ,GTL,ANDHRA PRADESH,E
15.7679807,79.6772397,KODAVALURU                                        ,KJJ ,BZA       ,ANDHRA PRADESH,E
17.6093209,77.7125232,KOHIR (DECCAN)                                    ,KOHR,SC        ,ANDHRA PRADESH,E
12.9290672,78.2655285,KOLANUR                                           ,KOLR,SC        ,ANDHRA PRADESH,E
14.0800308,79.7937754,KONDAGUNTA                                        ,KQA ,GTL,ANDHRA PRADESH,E
16.5186249,80.6198977,KONDAPALLI                                        ,KI  ,BZA       ,ANDHRA PRADESH,E
15.1709443,78.5011858,KONDAPURAM                                        ,KDP ,GTL,ANDHRA PRADESH,E
15.1420404,76.9210607,KOSAI                                             ,KSAE,NED   ,ANDHRA PRADESH,E
15.847949,77.2362942,KOSGI                                             ,KO  ,GTL,ANDHRA PRADESH,E
15.9128998,79.7399875,KOTHAPALLI HAVELI                                 ,KPHI,SC        ,ANDHRA PRADESH,E
16.7098835,82.0439163,KOTIPALLI                                         ,KPLH,BZA       ,ANDHRA PRADESH,E
26.3038302,89.452249,KOVVADA                                           ,KOVH,BZA       ,ANDHRA PRADESH,E
16.477002,80.60567,KRISHNA CANAL JN.                                 ,KCC ,BZA       ,ANDHRA PRADESH,E
16.718058,81.119576,KRISHNAMMA KONA                                   ,KEF ,GTL,ANDHRA PRADESH,E
15.9128998,79.7399875,KRISHNAPURAM                                      ,KPU ,GTL,ANDHRA PRADESH,E
12.8017392,78.2728809,KUNDURU,KDVH,BZA       ,ANDHRA PRADESH,E
15.7267866,77.2199475,KUPPUGAL                                          ,KGL ,GTL,ANDHRA PRADESH,E
16.2511545,81.0262555,KURICHEDU                                         ,KCD ,GNT       ,ANDHRA PRADESH,E
13.6673243,78.4854075,KURUBALAKOTA                                      ,KBA ,GTL,ANDHRA PRADESH,E
15.9128998,79.7399875,LINGAMPALLI-JAGITYAL                                 ,LPJL,SC        ,ANDHRA PRADESH,E
15.3995073,77.7031338,LINGANENIDODDI                                    ,LMD ,GTL,ANDHRA PRADESH,E
15.2565842,77.4120123,MADDIKERA                                         ,MKR ,GTL,ANDHRA PRADESH,E
16.5248611,80.649577,MADHURANAGAR                                 ,MDUN,BZA       ,ANDHRA PRADESH,E
13.6444159,78.5554728,MADNAPALLE ROAD                                   ,MPL ,GTL,ANDHRA PRADESH,E
15.3688878,77.9675889,MALAKAPURAM                                       ,MLK ,GTL,ANDHRA PRADESH,E
15.9128998,79.7399875,MALLEMADUGU                                       ,MLMG,SC        ,ANDHRA PRADESH,E
15.3978911,77.7775705,MALLIYALA                                         ,MYL ,GTL,ANDHRA PRADESH,E
13.6371551,79.4234694,MAMANDURU                                         ,MRM ,GTL,ANDHRA PRADESH,E
17.3852581,78.5216361,MANDAMARI                                         ,MMZ ,SC        ,ANDHRA PRADESH,E
16.5336378,81.1787832,MANDAVALLI                                        ,MDVL,BZA       ,ANDHRA PRADESH,E
16.5511698,80.6174783,MANGAPATNAM                                       ,MUM ,GTL,ANDHRA PRADESH,E
13.9137198,79.3642163,MANOHARABAD                                       ,MOB ,HYB       ,ANDHRA PRADESH,E
16.74,77.98,MANOPAD                                           ,MOA ,HYB       ,ANDHRA PRADESH,E
15.9128998,79.7399875,MANTAPAMPALLI                                     ,MMPL,GTL,ANDHRA PRADESH,E
28.63987,77.083118,MANTATTI                                          ,MVH ,SC        ,ANDHRA PRADESH,E
14.2269666,79.8774429,MANUBOLU                                         ,MBL ,BZA       ,ANDHRA PRADESH,E
24.576169,73.6959552,MANYAMKONDA                                       ,MQN ,HYB       ,ANDHRA PRADESH,E
14.695277,77.5850325,MARPALLI                                          ,MRF ,SC        ,ANDHRA PRADESH,E
14.663312,79.996948,MASAIPET                                      ,ME  ,HYB       ,ANDHRA PRADESH,E
17.6868481,83.2184972,MATALKUNTA                                        ,MTV ,SC        ,ANDHRA PRADESH,E
17.0052224,82.0964449,MEDAPADU                                          ,MPU ,BZA       ,ANDHRA PRADESH,E
17.7223157,83.289878,MEDCHAL                                           ,MED ,HYB       ,ANDHRA PRADESH,E
15.9128998,79.7399875,MIRZAPALLI                                        ,MZL ,HYB       ,ANDHRA PRADESH,E
17.7487115,83.2198151,MOLGAVALLI                                        ,MGV ,GTL,ANDHRA PRADESH,E
15.9128998,79.7399875,MOTUMARI                                          ,MTMI,SC        ,ANDHRA PRADESH,E
16.4305131,80.988339,MOTURU                                            ,OTR ,BZA       ,ANDHRA PRADESH,E
15.824071,78.0210479,MUDIGUBBA                                         ,MGB ,GTL,ANDHRA PRADESH,E
13.8020745,78.2645845,MULAKALACHERUVU                                   ,MCU ,GTL,ANDHRA PRADESH,E
16.1909957,79.9820378,MUNUMAKA                                          ,MUK ,GNT       ,ANDHRA PRADESH,E
16.546954,80.731817,MUSTABADA                                         ,MBD ,BZA       ,ANDHRA PRADESH,E
28.6372997,77.1746137,NAGALAPALLE                                       ,NPL ,SC        ,ANDHRA PRADESH,E
15.5428444,77.3136112,NAGARUR                                           ,NRR ,GTL,ANDHRA PRADESH,E
15.9128998,79.7399875,NAGIREDDIPALLI                                    ,NRDP,GNT       ,ANDHRA PRADESH,E
15.9128998,79.7399875,NAKKANADODDI                                      ,NKDO,GTL,ANDHRA PRADESH,E
14.0209783,78.1779967,NALLACHERUVU                                      ,NCU ,GTL,ANDHRA PRADESH,E
16.3079457,80.397131,NALLAPADU                                         ,NLPD,GNT       ,ANDHRA PRADESH,E
16.5047631,80.6507675,NAMBUR                                           ,NBR ,GNT       ,ANDHRA PRADESH,E
15.2562927,77.3689599,NANCHERLA                                         ,NLA ,GTL,ANDHRA PRADESH,E
14.2697425,79.1118575,NANDALUR                                          ,NRE ,GTL,ANDHRA PRADESH,E
16.7098835,82.0439163,NARASAPURAPU PETA                                 ,NSPH,BZA       ,ANDHRA PRADESH,E
17.6062706,82.8906067,NARASINGA PALLI                                   ,NASP,BZA       ,ANDHRA PRADESH,E
16.831407,81.6054842,NAVABPALEM                                        ,NBM ,BZA       ,ANDHRA PRADESH,E
15.9128998,79.7399875,NAVIPET                                           ,NVT ,HYB       ,ANDHRA PRADESH,E
16.3093673,80.4571595,NEW GUNTUR                                        ,NGNT,GNT       ,ANDHRA PRADESH,E
28.690624,77.151141,NIDAMANURU                                        ,NDM ,BZA       ,ANDHRA PRADESH,E
13.9885496,79.6614872,NIDIGALLU                                         ,NDZ ,GTL,ANDHRA PRADESH,E
15.9128998,79.7399875,NOOKAPALLI-MALLIAL                                   ,NPML,SC        ,ANDHRA PRADESH,E
15.7149089,79.3029798,NUDURU PADU                                       ,NDPU,GNT       ,ANDHRA PRADESH,E
17.4983453,78.3899802,NUZVID                                            ,NZD ,BZA       ,ANDHRA PRADESH,E
14.0406374,79.2674907,OBULAVARIPALLI                                    ,OBVP,GTL,ANDHRA PRADESH,E
14.3926079,79.0175038,ONTIMITTA                                         ,VNM ,GTL,ANDHRA PRADESH,E
14.496992,79.9897277,PADUGUPADU                                        ,PGU ,BZA       ,ANDHRA PRADESH,E
15.9128998,79.7399875,PAGADIRAI,PGRI,GTL,ANDHRA PRADESH,E
16.576406,81.2878274,PALLEVADA                                         ,PLVA,BZA       ,ANDHRA PRADESH,E
16.0609916,80.8042972,PALLIKONA                                         ,POA ,GNT       ,ANDHRA PRADESH,E
17.4369259,78.4894015,PANAPAKAM                                         ,PAM,GTL,ANDHRA PRADESH,E
15.9128998,79.7399875,PANDILLAPALLI                                     ,PNDP,SC        ,ANDHRA PRADESH,E
14.4509697,79.978223,PANYAM                                            ,PNM ,GTL,ANDHRA PRADESH,E
22.298502,70.799143,PAPATAPALLI                                       ,PPY ,SC        ,ANDHRA PRADESH,E
15.1713662,77.5223502,PATAKOTTACHERUVU                                  ,PLU ,GTL,ANDHRA PRADESH,E
15.9128998,79.7399875,PEDAKURAPADU                                      ,PKPU,GNT       ,ANDHRA PRADESH,E
17.702749,83.1532949,PEDDAMPET                                         ,PPZ ,SC        ,ANDHRA PRADESH,E
16.4144209,80.6130044,PEDDAVADLAPUDI                                    ,PVD ,BZA       ,ANDHRA PRADESH,E
16.562575,80.8394034,PEDDAVUTAPALLE                                  ,PAVP,BZA       ,ANDHRA PRADESH,E
15.9128998,79.7399875,PEMBARTI                                          ,PBP ,SC        ,ANDHRA PRADESH,E
15.9128998,79.7399875,PENDEKALLU                                        ,PDL ,GTL,ANDHRA PRADESH,E
16.5419215,81.5780675,PENNADA AGRAHARAM                                 ,PAGM,BZA       ,ANDHRA PRADESH,E
16.319,80.3393267,PERECHERLA                                        ,PRCA,GNT       ,ANDHRA PRADESH,E
18.7711547,83.4278664,PHIRANGIPURAM                                     ,PPM ,GNT       ,ANDHRA PRADESH,E
13.6549781,78.9444691,PILER TOWN,PILT,GTL,ANDHRA PRADESH,E
15.9128998,79.7399875,PINDIAL                                           ,PQL ,SC        ,ANDHRA PRADESH,E
16.4851565,79.8900552,PONDUGULA                                         ,PDGL,GNT       ,ANDHRA PRADESH,E
14.6510095,76.4695906,POODOOR                                        ,PDO ,HYB       ,ANDHRA PRADESH,E
15.9128998,79.7399875,POTKAPALLI                                        ,PTKP,SC        ,ANDHRA PRADESH,E
15.8737107,79.5246886,POTLAPADU ,POO ,GNT       ,ANDHRA PRADESH,E
13.5982727,79.0399575,PULICHERLA                                        ,PCL ,GTL,ANDHRA PRADESH,E
16.8097174,81.3244271,PULLA                                             ,PUA ,BZA       ,ANDHRA PRADESH,E
14.6776361,77.6042503,PULLAMPETA                                        ,PMT ,GTL,ANDHRA PRADESH,E
13.3026829,79.2019844,PUTLALAPATTU                                      ,PTT ,GTL,ANDHRA PRADESH,E
13.0548301,80.2445371,RACHAGUNNERI                                      ,RCG ,GTL,ANDHRA PRADESH,E
18.681187,79.411619,RAGHAVAPURAM                                      ,RGPM,SC        ,ANDHRA PRADESH,E
13.628347,79.4199775,RAGHUNATH PALLI                                   ,RGP ,SC        ,ANDHRA PRADESH,E
18.11209,83.3975542,RAIGIR                                       ,RAG ,SC        ,ANDHRA PRADESH,E
13.20319,78.745546,RAMACHANDRA PURAM                                 ,RBCS,BZA       ,ANDHRA PRADESH,E
15.9128998,79.7399875,RAMANNAPET                                       ,RMNP,GNT       ,ANDHRA PRADESH,E
14.0545816,78.7452044,RAMAPURAM                                         ,RAM ,GTL,ANDHRA PRADESH,E
15.0417543,77.6176335,RAMARAJU PALLI                                    ,RRJ ,GTL,ANDHRA PRADESH,E
16.5259989,80.6797655,RAMAVARAPPADU                                     ,RMV ,BZA       ,ANDHRA PRADESH,E
15.5042936,78.3775025,RANGAPURAM                                        ,RGM ,GTL,ANDHRA PRADESH,E
17.22944,82.36712,RAVIKAMPADU                                       ,RVD ,BZA       ,ANDHRA PRADESH,E
17.4931096,78.4091368,RAVINDRAKHANI                                  ,RVKH,SC        ,ANDHRA PRADESH,E
15.0553174,77.82011,RAYALACHERUVU                                     ,RLO ,GTL,ANDHRA PRADESH,E
16.5784985,80.5613551,RAYANA PADU                                       ,RYP ,BZA       ,ANDHRA PRADESH,E
17.6868481,83.2184972,RECHNI ROAD                                       ,RECH,SC        ,ANDHRA PRADESH,E
16.4418516,80.0505235,REDDIGUDEM                                        ,REM ,GNT       ,ANDHRA PRADESH,E
14.4421091,79.9766922,REGADIPALLI                                       ,RLL ,GTL,ANDHRA PRADESH,E
17.505256,82.7906695,REGUPALEM                                         ,REG ,BZA       ,ANDHRA PRADESH,E
17.4745745,78.5199155,RUKMAPUR                                          ,RMY ,SC        ,ANDHRA PRADESH,E
15.9128998,79.7399875,SADASHIVPET ROAD                                 ,SSPD,SC        ,ANDHRA PRADESH,E
16.246329,80.570462,SANGAM JAGARLAMUDI                                ,SJL ,GNT       ,ANDHRA PRADESH,E
16.1475075,79.9152473,SANTAMAGULUR                                      ,SAB ,GNT       ,ANDHRA PRADESH,E
16.2543391,80.1388459,SATULUR                                            ,STUR,GNT       ,ANDHRA PRADESH,E
17.339808,78.520665,SAVALYAPURAM                                      ,SYM ,GNT       ,ANDHRA PRADESH,E
13.870342,79.384068,SETTIGUNTA                                        ,SF  ,GTL,ANDHRA PRADESH,E
13.159866,79.1370916,SIDDAMPALLI                                       ,SIE,GTL,ANDHRA PRADESH,E
16.4142969,80.2947583,SIRIPURAM                                         ,SRPM,GNT       ,ANDHRA PRADESH,E
16.469684,79.43841,SIRNAPALLI                                    ,SCP ,HYB       ,ANDHRA PRADESH,E
19.4788121,79.5606993,SIRPUR TOWN                                       ,SRUR,SC        ,ANDHRA PRADESH,E
16.524933,80.649694,SOMIDEVIPALLI ,SDV ,GNT       ,ANDHRA PRADESH,E
15.0632425,79.2888494,SRI RAMANAGAR                                     ,SRNR,HYB       ,ANDHRA PRADESH,E
14.8062913,79.9820378,SRI VENKATEWARA PALEM,SVPM,BZA       ,ANDHRA PRADESH,E
13.0712876,80.2025874,SRIRAMPURAM                                      ,SRMR,GNT       ,ANDHRA PRADESH,E
14.7110025,78.4681052,STUARTPURAM                                       ,SPF ,BZA       ,ANDHRA PRADESH,E
16.24039,80.62738,SULTANABAD,SBD,SC        ,ANDHRA PRADESH,E
15.4082015,80.0460137,SURAREDDI PALEM                                   ,SDM ,BZA       ,ANDHRA PRADESH,E
13.628347,79.4199775,TADIKALAPUDI                                      ,TPY ,SC        ,ANDHRA PRADESH,E
13.5910967,80.0322515,TADLA PUSAPALLI                                   ,TAA ,SC        ,ANDHRA PRADESH,E
14.606717,79.9977663,TALAMANCHI                                        ,TMC ,BZA       ,ANDHRA PRADESH,E
18.2958049,82.5854569,TALMADLA                                          ,TMD ,HYB       ,ANDHRA PRADESH,E
13.9226134,78.2011484,TANAKALLU                                         ,TKU ,GTL,ANDHRA PRADESH,E
15.5802465,79.1075505,TANGUTURU                                         ,TNR ,BZA       ,ANDHRA PRADESH,E
16.4853498,80.8359624,TARIGOPPULA                                       ,TGU ,BZA       ,ANDHRA PRADESH,E
15.6563939,79.209129,TARLUPADU                                         ,TLU ,GNT       ,ANDHRA PRADESH,E
13.8241478,77.4977541,TATICHERLA                                        ,TAC ,GTL,ANDHRA PRADESH,E
16.5996131,80.8919263,TELAPROLU                                         ,TOU ,BZA       ,ANDHRA PRADESH,E
15.9128998,79.7399875,TETTU                                             ,TTU ,BZA       ,ANDHRA PRADESH,E
17.686307,83.066671,THADI                                             ,THY ,BZA       ,ANDHRA PRADESH,E
15.9128998,79.7399875,THIPPARTHI                                         ,TPPI,GNT       ,ANDHRA PRADESH,E
15.9128998,79.7399875,TIMMAPUR                                          ,TMX ,HYB       ,ANDHRA PRADESH,E
16.8102053,81.5266148,TIMMENCHERLA                                      ,TIM ,GTL,ANDHRA PRADESH,E
15.9128998,79.7399875,TONDALA GOPAVARAM                                 ,TNGM,SC        ,ANDHRA PRADESH,E
17.7250796,83.3046089,TSUNDURU                                          ,TSR ,BZA       ,ANDHRA PRADESH,E
15.6293822,77.266775,TUGGALI                                           ,TGL ,GTL,ANDHRA PRADESH,E
16.5274712,79.8027953,TUMMALACHERUVU                                    ,TMLU,GNT       ,ANDHRA PRADESH,E
14.6864093,77.5952527,TUMMANGUNTA                                      ,TAT ,GTL,ANDHRA PRADESH,E
17.6681085,83.2077026,ULAVAPADU                                         ,UPD ,BZA       ,ANDHRA PRADESH,E
17.4369259,78.4894015,ULINDAKONDA                                       ,UKD ,HYB       ,ANDHRA PRADESH,E
17.7087796,83.3003549,UMRAM,UMM,NED,ANDHRA PRADESH,E
16.580705,81.465159,UNDI                                              ,UNDI,BZA       ,ANDHRA PRADESH,E
17.4021084,78.5604404,UPPAL                                             ,OPL ,SC        ,ANDHRA PRADESH,E
16.3139312,80.4687227,UPPALURU                                          ,UPL ,BZA       ,ANDHRA PRADESH,E
16.8104987,81.5283467,UPPLAVAI                                          ,UPW ,HYB       ,ANDHRA PRADESH,E
17.4009646,78.484349,UPPUGUNDURU                                       ,UGD ,BZA       ,ANDHRA PRADESH,E
16.7098835,82.0439163,VAKADA,VH,BZA       ,ANDHRA PRADESH,E
16.242093,80.64063,VALIGONDA                                         ,VLG ,GNT       ,ANDHRA PRADESH,E
14.8477846,78.0810035,VANGANUR                                          ,VRN ,GTL,ANDHRA PRADESH,E
16.4349096,80.5687693,VATLUR                                            ,VAT ,BZA       ,ANDHRA PRADESH,E
13.6342598,78.6232376,VAYALPADU                                         ,VLD ,GTL,ANDHRA PRADESH,E
16.237719,80.5201989,VEJENDLA                                          ,VJA ,GNT       ,ANDHRA PRADESH,E
17.0086211,81.5253564,VELANGI                                           ,VGH,BZA       ,ANDHRA PRADESH,E
15.5536093,77.9274113,VELDURTHI                                         ,VDI ,HYB       ,ANDHRA PRADESH,E
16.1777149,80.7426722,VEMURU                                            ,VMU ,GNT       ,ANDHRA PRADESH,E
14.027065,79.728565,VENDODU                                           ,VDD ,GTL,ANDHRA PRADESH,E
14.3272476,79.9271491,VENKATACHALAM                                     ,VKT ,BZA       ,ANDHRA PRADESH,E
17.661147,83.1882727,VENKATAMPALLI                                     ,VPL ,GTL,ANDHRA PRADESH,E
15.783886,80.3008938,VETAPALEM                                         ,VTM ,BZA       ,ANDHRA PRADESH,E
15.158896,77.1321575,VIRAPUR                                           ,VP  ,GTL,ANDHRA PRADESH,E
16.709848,79.637353,VISHNUPURAM                                       ,VNUP,GNT       ,ANDHRA PRADESH,E
15.9128998,79.7399875,WADIARAM                                          ,WDR ,HYB       ,ANDHRA PRADESH,E
17.4086697,78.390085,WANGAPALLI                                        ,WP  ,SC        ,ANDHRA PRADESH,E
14.6435271,78.5338339,YELGUR                                            ,YGL ,SC        ,ANDHRA PRADESH,E
13.8462119,79.650386,YELLAKARU                                         ,YLK ,GTL,ANDHRA PRADESH,E
14.691293,77.60495,YERMARAS                                          ,YS  ,GTL,ANDHRA PRADESH,E
13.6889179,79.5782542,YERPEDU                                           ,YPD ,GTL,ANDHRA PRADESH,E
15.9128998,79.7399875,YERRAGUDIPADU                                     ,YGD ,GTL,ANDHRA PRADESH,E
14.5913804,77.6409048,ZANGALAPALLE                                      ,ZPL ,GTL,ANDHRA PRADESH,E
17.6850754,83.2104426,DORAVARI CHATRAM                   ,DVR  ,MAS,ANDHRA PRADESH,E
13.3069367,79.5796382,NAGARI                             ,NG   ,MAS,ANDHRA PRADESH,E
14.0716299,79.8558053,ODUR                               ,ODR  ,MAS,ANDHRA PRADESH,E
14.0213645,79.8756817,PEDAPARIYA                         ,PYA  ,MAS,ANDHRA PRADESH,E
22.4975852,88.374348,POLIREDDYPALEM                     ,PEL  ,MAS,ANDHRA PRADESH,E
13.5515357,79.5081941,PUDI,PUDI,MAS,ANDHRA PRADESH,E
13.5883483,80.0362624,TADA,TADA,MAS,ANDHRA PRADESH,E
13.4971961,79.5304024,TADUKU                             ,TDK  ,MAS,ANDHRA PRADESH,E
16.523838,80.7914172,VEPAGUNTA                          ,VGA  ,MAS,ANDHRA PRADESH,E
14.3111487,77.7454591,BASAMPALLE,BSPL,SBC,ANDHRA PRADESH,E
13.9974275,77.5829118,CHAKARLAPALLI,CPL,SBC,ANDHRA PRADESH,E
13.652889,79.15786,GUDUPALLI,GDP,SBC,ANDHRA PRADESH,E
14.1963576,77.6284642,MAKKAJIPALLI,MKJ,SBC,ANDHRA PRADESH,E
12.6618345,78.4071509,MULANUR,MAR,SBC,ANDHRA PRADESH,E
17.442475,78.431381,NAGASAMUDRAM,NGM,SBC,ANDHRA PRADESH,E
14.1289182,77.6961708,NARAYANAPURAM,NRYP,SBC,ANDHRA PRADESH,E
27.002155,92.6448324,BHALUKPONG,BHNG,RNY,ARUNACHAL PRADESH,E
26.3571313,90.6421378,ABHAYAPURI ,AYU,RNY,ASSAM,E
26.2113618,89.7822801,AGOMONI,AGMN,APDJ,ASSAM,E
26.198506,91.686058,AGHTHORI ,AGT,LMG,ASSAM,E
26.1954001,93.8643886,ALGAPUR,ALGP,LMG,ASSAM,E
26.1761983,90.6250998,AMGURI,AGI,TSK,ASSAM,E
26.4482846,92.9196756,AMONI,AMONI,LMG,ASSAM,E
24.8557002,92.7427522,ARUNACHAL,ARCL,LMG,ASSAM,E
26.2006043,92.9375739,AUJURI,AJRE,LMG,ASSAM,E
26.102019,91.616639,AZARA ,AZA,RNY,ASSAM,E
24.4923327,86.6969668,BADARPURGHAT,BPG,LMG,ASSAM,E
26.5100479,93.9663291,BAGETAR,BF,LMG,ASSAM,E
28.701985,77.078869,BAIHATA ,BIZ,RNY,ASSAM,E
27.2377418,95.3334814,BALIMARA,BTZ,TSK,ASSAM,E
26.8192898,92.7719137,BALIPARA ,BVU,RNY,ASSAM,E
26.2006043,92.9375739,BAMUNIGAON ,BMGN,RNY,ASSAM,E
25.0560343,92.7974608,BANDARKHAL,BXK,LMG,ASSAM,E
26.1163038,92.139523,BARAHU,BRHU,LMG,ASSAM,E
26.2006043,92.9375739,BARAIGRAM,BRGM,LMG,ASSAM,E
27.2382714,94.0848553,BARLONGFER,BRLF,LMG,ASSAM,E
26.1510468,91.7975239,BARPATHAR,BXP,LMG,ASSAM,E
26.669114,93.9834344,BARUABAMUN GAON,BBGN,TSK,ASSAM,E
26.2006043,92.9375739,BASBARI,BSI,APDJ,ASSAM,E
26.4599649,90.4199615,BASUGAON,BSGN,APDJ,ASSAM,E
26.758006,94.214455,BEBEJIA,BEE,LMG,ASSAM,E
26.669543,94.1237971,BHALUKMARA,BLMR,TSK,ASSAM,E
24.8539984,92.4799329,BHANGA,BXG,LMG,ASSAM,E
26.341767,93.9221406,BHILGAON,BHGN,LMG,ASSAM,E
26.2778902,89.765872,BIDYADABRI,BDYR,APDJ,ASSAM,E
26.0981403,87.9498058,BIHARA,BHZ,LMG,ASSAM,E
26.7085019,92.7342761,BINDUKURI,BKTB,RNY,ASSAM,E
17.435294,78.493956,BOGINADI ,BGND,RNY,ASSAM,E
25.9784162,91.2357044,BOKO ,BOKO,RNY,ASSAM,E
27.3992141,95.314539,BORDUBI ROAD,BDT,TSK,ASSAM,E
27.1639199,95.2770773,BORHAT,BFD,TSK,ASSAM,E
27.4797616,95.3340108,CHABUA,CHB,TSK,ASSAM,E
26.5616195,94.0957895,CHAKITING,CFG,TSK,ASSAM,E
24.8674282,92.3634831,CHANDRANATHPUR,CNE,LMG,ASSAM,E
28.6391204,77.0981294,CHANGSARI ,CGS,RNY,ASSAM,E
26.4922125,90.611831,CHAPRAKATA ,CPQ,RNY,ASSAM,E
24.847023,92.422734,CHARGOLA,CGX,LMG,ASSAM,E
23.1720459,79.931716,CHARIALI,CGF,TSK,ASSAM,E
26.2006043,92.9375739,CHAULKHOWA,CKW,TSK,ASSAM,E
26.4014415,90.0855303,CHAUTARA,CROA,APDJ,ASSAM,E
26.8310168,94.4153291,CHAYGAON ,CGON,RNY,ASSAM,E
24.9159897,92.9794699,CHONGAJAN,CJA,LMG,ASSAM,E
26.7063572,94.2396638,CINNAMARA,CMA,TSK,ASSAM,E
25.8199279,93.5164136,DALDALI,DLDE,LMG,ASSAM,E
25.0114179,92.7438044,DAMCHERRA,DCA,LMG,ASSAM,E
26.4692469,90.4952222,DANGTAL,DTX,APDJ,ASSAM,E
25.2392907,93.1704885,DAUTUHAJA,DJA,LMG,ASSAM,E
26.7913365,92.9231355,DHALIBIL ,DQL,RNY,ASSAM,E
25.9584981,92.9084051,DHALPUKHURI,DHRY,LMG,ASSAM,E
27.3873123,94.8375812,DHAMALGAON,DMGN,TSK,ASSAM,E
26.6292018,93.7690179,DHANSIRI,DSR,LMG,ASSAM,E
26.2006043,92.9375739,DHARAMTUL,DML,LMG,ASSAM,E
26.809753,92.45158,DHEKIAJULI RAOD ,DKJR,RNY,ASSAM,E
24.6851633,92.562494,DHEMAJI ,DMC,RNY,ASSAM,E
26.4558967,92.4806339,DHING BAZAR,DBZ,LMG,ASSAM,E
25.9809913,91.0480651,DHUPDHARA ,DPRA,RNY,ASSAM,E
25.4507925,93.1271338,DIHAKHO,DKE,LMG,ASSAM,E
28.6267128,77.093926,DIJAOBRA,DJB,LMG,ASSAM,E
27.463832,95.0805698,DIKOM,DKM,TSK,ASSAM,E
25.0927532,92.8046171,DITOKCHERRA,DTC,LMG,ASSAM,E
26.2006043,92.9375739,DUDHNAI ,DDNI,RNY,ASSAM,E
24.487998,92.4330104,DULLABCHERRA,DLCR,LMG,ASSAM,E
26.0771211,89.9558971,GAURIPUR,GUP,APDJ,ASSAM,E
26.4511039,91.5298462,GHOGRAPAR,GOE,RNY,ASSAM,E
26.0265492,89.9745157,GOGAMUKH ,GOM,RNY,ASSAM,E
26.6181232,92.7798873,GOHPUR ,GPZ,RNY,ASSAM,E
26.1082389,89.8308216,GOLAKGANJ,GKJ,APDJ,ASSAM,E
26.52792,91.72224,GORESWAR ,GVR,RNY,ASSAM,E
26.1164805,91.7219495,GUABARI,GBY,APDJ,ASSAM,E
25.8714259,92.9852906,HABAIPUR,HWX,LMG,ASSAM,E
26.2006043,92.9375739,HAFLONG HILL  ,HFG,LMG,ASSAM,E
25.112662,92.868091,HARANGAJAO,HJO,LMG,ASSAM,E
26.725131,91.986625,HARISINGA ,HRSN,RNY,ASSAM,E
27.1191777,93.8605387,HARMOTI ,HMY,RNY,ASSAM,E
25.6401505,93.1015322,HATIKHALI,HTL,LMG,ASSAM,E
26.2006043,92.9375739,HELEM ,HML,RNY,ASSAM,E
24.9420433,92.6026682,HILARA,HLX,LMG,ASSAM,E
26.386436,93.9596546,JAMGURI,JMI,LMG,ASSAM,E
26.2006043,92.9375739,JAMIRA,JMRA,LMG,ASSAM,E
26.178654,91.736325,JAMUNAMUKH,JMK,LMG,ASSAM,E
26.2006043,92.9375739,JATINGA,JTG,LMG,ASSAM,E
26.2006043,92.9375739,JOGIGHOPA ,JPZ,RNY,ASSAM,E
26.2006043,92.9375739,JUGIJAN,JGJN,LMG,ASSAM,E
26.2119464,89.7843182,KAITHALKUCHI ,KTCH,RNY,ASSAM,E
26.441794,91.1942155,KALACHAND,KQI,LMG,ASSAM,E
24.580574,92.295371,KALKALIGHAT,KKGT,LMG,ASSAM,E
26.5291705,94.0556127,KAMARBANDHA ALI,KXL,TSK,ASSAM,E
26.1273296,92.0825722,KAMRUP KHETRI,KKET,LMG,ASSAM,E
24.8355321,92.6265085,KATAKHAL,KTX,LMG,ASSAM,E
27.1766154,93.9710235,KATHALPUKHURI ,KTPR,RNY,ASSAM,E
26.2006043,92.9375739,KATLICHERRA,KTCR,LMG,ASSAM,E
26.3679795,91.6452941,KENDUKONA ,KDKN,RNY,ASSAM,E
26.4648292,91.6447251,KHANDIKAR ,KYO,RNY,ASSAM,E
28.6067423,77.1400999,KHOIRABARI ,KBY,RNY,ASSAM,E
25.9527354,93.7546474,KHOTKHOTI,KHKT,LMG,ASSAM,E
27.2790149,94.8875749,KHOWANG,KOWN,TSK,ASSAM,E
24.8691079,92.3675779,KRISHNAI ,KRNI,RNY,ASSAM,E
27.4525213,94.9996395,LAHOAL,LHL,TSK,ASSAM,E
27.0051593,94.8440834,LAKWA,LXA,TSK,ASSAM,E
24.5622194,92.6104365,LALABAZAR,LLBR,LMG,ASSAM,E
25.7966095,93.0467049,LAMSAKHANG,LKG,LMG,ASSAM,E
24.8545064,92.3448364,LANGAI,LGI,LMG,ASSAM,E
25.7586723,93.3045566,LANGCHOLIET,LCT,LMG,ASSAM,E
25.4977188,93.1101367,LANGTING,LGT,LMG,ASSAM,E
26.199328,92.5947641,LAOPANI,LPN,LMG,ASSAM,E
24.8374058,92.8061506,LONGRANGAJAO,LJO,LMG,ASSAM,E
25.1811898,93.1137389,MAHUR,MXR,LMG,ASSAM,E
26.1285959,91.6943261,MAIBONG,MBG,LMG,ASSAM,E
25.1200403,92.9195309,MAILONGDISA,MGX,LMG,ASSAM,E
26.451241,92.426171,MAIRABARI,MBO,LMG,ASSAM,E
24.8234506,92.2892332,MAISHASHAN,MSSN,LMG,ASSAM,E
26.785757,92.28817,MAJBAT ,MJBT,RNY,ASSAM,E
26.4150453,90.5826307,MAJGAON ,MZQ,RNY,ASSAM,E
25.7198007,93.1276255,MANDERDISA,MYD,LMG,ASSAM,E
24.4085302,92.5416747,MANIPURBAGAN,MOAR,LMG,ASSAM,E
26.886144,94.688937,MEZENGA,MZA,TSK,ASSAM,E
25.1750468,93.0658561,MIGRENDISA,MGE,LMG,ASSAM,E
26.0925261,91.535511,MIRZA ,MRZA,RNY,ASSAM,E
26.1837579,91.7875843,MISAMARI ,MSMI,RNY,ASSAM,E
24.8295298,92.7417615,MONACHERRA,MNCR,LMG,ASSAM,E
25.37571,93.1190563,MUPA,MPP,LMG,ASSAM,E
27.82919,95.2193856,MURKONGSELEK ,MZS,RNY,ASSAM,E
26.2006043,92.9375739,NAGAON,NGAN,LMG,ASSAM,E
26.2006043,92.9375739,NAILALONG,NLN,LMG,ASSAM,E
26.7078167,94.3938017,NAKACHARI,NCH,TSK,ASSAM,E
26.8556223,94.6279658,NAMTIALI,NMT,TSK,ASSAM,E
26.1217081,93.8430477,NAOJAN,NJN,LMG,ASSAM,E
26.1821196,91.8332385,NARENGI,NNGE,LMG,ASSAM,E
26.9034586,94.7225388,NAZIRA,NZR,TSK,ASSAM,E
24.7460213,92.35563,NILAMBAZAR,NLBR,LMG,ASSAM,E
26.8458664,93.3023709,NIZBARGAON ,NBX,RNY,ASSAM,E
26.2008735,91.6056718,NIZCHETIA,NCA,RNY,ASSAM,E
26.7145088,92.8322138,NUMALIGARH,NMGY,TSK,ASSAM,E
26.4303353,93.9879023,OATING,OTN,LMG,ASSAM,E
26.0180472,89.9939288,PANBARI,PNB,LMG,ASSAM,E
26.116219,91.715133,PANCHARATNA ,PNVT,RNY,ASSAM,E
24.8657022,92.5986201,PANCHGRAM,PNGM,LMG,ASSAM,E
26.2116071,91.8752611,PANIKHAITI,PHI,LMG,ASSAM,E
27.4949793,95.2566683,PANITOLA,PNT,TSK,ASSAM,E
24.6106453,92.3220433,PATHARKANDI,PTKD,LMG,ASSAM,E
25.7785371,93.1028787,PATHARKHOLA,PKB,LMG,ASSAM,E
26.2006043,92.9375739,PATILADAHA ,PTLD,RNY,ASSAM,E
24.6613416,92.4127307,PHAKHOAGRAM,PKGM,LMG,ASSAM,E
26.2006043,92.9375739,PHIDING,PDJ,LMG,ASSAM,E
26.2292985,92.5208517,RAHA,RAH,LMG,ASSAM,E
26.7299013,94.2271453,RAMNATHPUR,RTRA,LMG,ASSAM,E
25.9881763,90.9558749,RANGJULI ,RGJI,RNY,ASSAM,E
26.737076,92.215042,ROWTA BAGAN ,RWTB,RNY,ASSAM,E
27.489382,94.5425959,RUPOHIGAON,RUP,LMG,ASSAM,E
27.0286454,94.9422678,SAFRAI,SFR,TSK,ASSAM,E
26.7836915,94.4830944,SALAKATI,SLKX,APDJ,ASSAM,E
24.8251838,92.6676822,SALCHAPRA,SCA,LMG,ASSAM,E
26.451503,92.972092,SALONA ASSAM,SLQ,LMG,ASSAM,E
26.3344464,90.1095467,SAPATGRAM ,SPX,APDJ,ASSAM,E
27.4636302,94.9136007,SAPEKHATI,SPK,TSK,ASSAM,E
26.5020363,90.9647221,SARUPETA ,SPQ,RNY,ASSAM,E
26.7836915,94.4830944,SELENGHAT,SLX,TSK,ASSAM,E
26.2029068,92.5123086,SENCHOA JN.,SCE,LMG,ASSAM,E
27.200633,94.033404,SILANIBARI ,SOB,RNY,ASSAM,E
26.2006043,92.9375739,SILAPATHAR ,SPTR,RNY,ASSAM,E
27.2089414,94.9445064,SILGHAT TOWN,SHTT,LMG,ASSAM,E
26.4938842,90.8845291,SORBHOG ,SBE,RNY,ASSAM,E
26.2006043,92.9375739,SRIKONA HALT,SXO,LMG,ASSAM,E
26.4272011,89.9045637,SRIRAMPUR ASSAM,SRPB,APDJ,ASSAM,E
24.9005251,92.5774208,SUKRITIPUR,SQF,LMG,ASSAM,E
26.657056,91.905175,TANGLA,TNL,RNY,ASSAM,E
26.9800302,93.819766,TATIBAHAR ,TBH,RNY,ASSAM,E
26.181211,91.749698,TELEM ,TQM,RNY,ASSAM,E
26.2006043,92.9375739,TETELIA,TTLA,LMG,ASSAM,E
26.2336705,91.9217759,THAKURKUCHI,TKC,LMG,ASSAM,E
26.2059848,92.4345505,THEKERAGURI,TGE,LMG,ASSAM,E
24.4887882,92.271729,TILBHUM,TBX,LMG,ASSAM,E
27.4581399,95.5598921,TINGRAI,TII,TSK,ASSAM,E
26.2878601,90.0334847,TIPKAI ,TPK,APDJ,ASSAM,E
26.4472785,91.6064099,UDALGURI ,ULG,RNY,ASSAM,E
26.769712,93.165238,VISWANAT CHARIALI ,VNE,RNY,ASSAM,E
26.2006043,92.9375739,WADRENDISA,WDA,LMG,ASSAM,E
25.0960742,85.3131194,ADAPUR,ADX,SPJ,BIHAR,E
25.6886445,85.3138237,AKSHAYWAT RAI NAGAR,AYRN,SEE,BIHAR,E
27.2118137,84.4780666,AMOLWA,AMO,SPJ,BIHAR,E
25.7934981,85.9097692,ANGARGHAT,ARG,SPJ,BIHAR,E
28.6188227,77.2416379,ANKORAH (AKORHA),ANH,MGS,BIHAR,E
25.45366,85.5902016,ATHMALGOLA,ATL,DNR,BIHAR,E
19.1414709,72.8336514,AURAHI,AUI,SPJ,BIHAR,E
26.5071682,85.6542676,AWAPUR,AWPR,SPJ,BIHAR,E
25.7645606,84.9570853,AWTAR NAGAR,ATNR,SEE,BIHAR,E
26.0981403,87.9498058,BADAGOPAL,BAGL,SEE,BIHAR,E
25.5534698,86.5867597,BADALAGHAT,BHB,SPJ,BIHAR,E
25.0960742,85.3131194,BAGHA BISNUPUR,BCJ,MGS,BIHAR,E
25.6093213,85.1423329,BAGHIBARDIHA,BBE,DNR,BIHAR,E
25.9004847,86.6538584,BAIJNATHPUR,BYP,SPJ,BIHAR,E
26.738549,85.273567,BAIRGANIA,BGU,SPJ,BIHAR,E
26.5441598,85.6255129,BAJPATTI,BJT,SPJ,BIHAR,E
25.5978482,86.2641549,BAKHARI,BKHR,SEE,BIHAR,E
25.561333,84.390599,BANAHI,BYN,DNR,BIHAR,E
25.5469188,85.2737594,BANKAGHAT,BKG,DNR,BIHAR,E
25.124446,86.1450469,BANSI PUR,BSQP,DNR,BIHAR,E
25.7768651,87.0961842,BARAHARA KOTHI,BAKT,SPJ,BIHAR,E
25.4742738,85.965178,BARAUNI FLAG,BUJ,SEE,BIHAR,E
25.5690886,84.0726299,BARUNA,BUE,DNR,BIHAR,E
25.6482127,85.5426623,BASUDEOPUR CHANDEL,BDUA,SEE,BIHAR,E
25.4403227,87.7394772,BELA,BLA,DNR,BIHAR,E
25.858355,85.3010996,BHAGWANPUR,BNR,SEE,BIHAR,E
25.825514,85.847546,BHAGWANPUR DESHUA,BGDS,SPJ,BIHAR,E
26.0966429,85.3826725,BHAIROGANJ,BRU,SPJ,BIHAR,E
27.0108081,84.5110013,BHELWA,BLV,SPJ,BIHAR,E
27.3331926,84.6139956,BHIKHNA THORI,BKF,SPJ,BIHAR,E
25.6039728,85.1116902,BHITIHARAWA ASHRAM,BHWA,SPJ,BIHAR,E
25.7322081,86.9923357,BIHARIGANJ,BHGJ,SPJ,BIHAR,E
25.5468036,84.66291,BIKRAMGANJ,BKJ,MGS,BIHAR,E
25.6392745,85.3405912,BIRAUL,BIRL,SPJ,BIHAR,E
25.4742738,85.965178,BITHAULI FLAG,BTHL,SEE,BIHAR,E
25.0960742,85.3131194,BUDHAMA,BDMA,SPJ,BIHAR,E
25.6236894,85.1097482,CHAK SIKANDAR,CSR,SEE,BIHAR,E
24.8902043,84.9956329,CHAKAND,CKH,DNR,BIHAR,E
25.6983369,85.2724089,CHAKMAKRAND,CKRD,SEE,BIHAR,E
25.0960742,85.3131194,CHAMUA,CAMU,SPJ,BIHAR,E
28.6107403,77.2106921,CHAURA DANO,CAO,SPJ,BIHAR,E
25.6012761,85.1806236,CHAUSA,CSA,DNR,BIHAR,E
25.0960742,85.3131194,CHIKANA,CKNA,SPJ,BIHAR,E
25.4214475,86.2599197,DANAULI PHULWARIA,DPL,SEE,BIHAR,E
25.4227628,85.2874352,DANIYAWAN,DHWN,DNR,BIHAR,E
25.5908231,86.5994428,DHAMARA GHAT,DHT,SPJ,BIHAR,E
26.7177706,85.3534779,DHANG,DAG,SPJ,BIHAR,E
26.829775,84.779832,DHARMINIYA,DRQ,SPJ,BIHAR,E
25.5647103,83.9777482,DHEENA,DHA,DNR,BIHAR,E
25.278274,83.001221,DILWA,DLW,DHN,BIHAR,E
25.9486101,85.6168306,DUBHA,DUBH,SEE,BIHAR,E
25.2872179,83.6028386,DURGAWATI,DGO,MGS,BIHAR,E
26.0196206,86.6054868,GARH BARUWARI,GEB,SPJ,BIHAR,E
26.9237256,75.803136,GARHANI,GQN,MGS,BIHAR,E
25.0971322,84.1224808,GARHNOKHA,GNK,MGS,BIHAR,E
25.6591689,86.2071933,GARHPURA,GRPA,SPJ,BIHAR,E
25.1425671,86.0123026,GARSHANDA,GSDH,DNR,BIHAR,E
24.8032413,84.9997072,GAUCHARI,GAI,SEE,BIHAR,E
27.2892247,84.5184633,GAUNAHA,GAH,SPJ,BIHAR,E
26.2824106,86.4686251,GHOGARDIHA,GGH,SPJ,BIHAR,E
26.8205426,85.1271666,GHORA SAHAN,GRH,SPJ,BIHAR,E
27.0686495,84.541968,GOKHULA,GKA,SPJ,BIHAR,E
25.7539107,84.8269547,GOLDENGANJ,GJH,SEE,BIHAR,E
24.9116494,84.1893242,GURHANWA,GRNA,SPJ,BIHAR,E
24.5611709,85.2989922,GURPA,GAP,DHN,BIHAR,E
25.4635286,85.706243,HARDAS BIGHA,HDE,DNR,BIHAR,E
25.0960742,85.3131194,HATHIDAH LINK,HTZ1,DNR,BIHAR,E
25.3173672,85.2771641,HILSA,HIL,DNR,BIHAR,E
25.5557221,86.3024139,IMLI,IML,SPJ,BIHAR,E
25.6976887,85.2143376,ISMAILPUR,IMGE,MGS,BIHAR,E
26.3071246,86.5744396,JAIMURTI NAGAR,JMM,SPJ,BIHAR,E
24.8292147,84.5262328,JAKHIM,JHN,MGS,BIHAR,E
22.5345021,88.3606459,JAMUAWAN,JMN,DNR,BIHAR,E
25.8822233,87.1196924,JANAKINAGAR,JNKR,SPJ,BIHAR,E
25.0842258,85.4371947,JETHIAN,JTIN,DNR,BIHAR,E
26.2119648,84.358195,JIVDHARA,JDR,SPJ,BIHAR,E
25.4631578,85.7071238,JOGIARA,JGA,SPJ,BIHAR,E
28.664498,77.261252,KAKAR GHATI,KKHT,SPJ,BIHAR,E
26.3277102,85.8158767,KAMTAUL,KML,SPJ,BIHAR,E
26.208788,85.2955338,KANTI,KTI,SPJ,BIHAR,E
26.151578,85.897226,KAPARPURA,KVC,SPJ,BIHAR,E
25.5495321,84.5633125,KARISATH,KRS,DNR,BIHAR,E
24.8089164,85.1524597,KARJARA,KRJR,DNR,BIHAR,E
25.0796559,83.5487351,KARMNASA,KMS,MGS,BIHAR,E
19.152458,72.8557304,KARPURIGRAM,KPGM,SEE,BIHAR,E
24.9503134,84.0920036,KARWANDIYA,KWD,MGS,BIHAR,E
25.0712267,85.7203354,KASICHAK,KSC,DNR,BIHAR,E
24.8025842,84.9205995,KASTHA,KSTA,MGS,BIHAR,E
25.4001358,87.1963082,KATARIA,KTRH,SEE,BIHAR,E
25.3892533,87.0151782,KHARIK,KHQ,SEE,BIHAR,E
27.142368,84.1527057,KHARPOKHARA,KPB,SPJ,BIHAR,E
26.4946717,86.3975172,KHUTAUNA,KHTN,SPJ,BIHAR,E
25.8598831,85.7862803,KISHANPUR,KSP,SPJ,BIHAR,E
25.0960742,85.3131194,KOELWAR,KWR,DNR,BIHAR,E
25.661382,86.5984972,KOPARIA,KFA,SPJ,BIHAR,E
25.8199341,87.3950513,KRITYANAND NAGAR,KTNR,SPJ,BIHAR,E
25.5061504,86.4670358,KULHARIA,KUA,DNR,BIHAR,E
24.9774191,83.9460523,KUMAHU,KMGE,MGS,BIHAR,E
26.928229,75.797456,KUMAR BAGH,KUMB,SPJ,BIHAR,E
26.7708415,85.1852846,KUNDWACHAINPUR,KWC,SPJ,BIHAR,E
25.0960742,85.3131194,KURHANI,KHI,SEE,BIHAR,E
25.426007,86.310039,LAKHMINIA,LKN,SEE,BIHAR,E
26.5429936,86.46281,LAUKAHA BAZAR,LKQ,SPJ,BIHAR,E
26.2215307,86.2290823,LOHANA ROAD,LNO,SPJ,BIHAR,E
26.2872299,86.2811494,MAHRAIL,MHRL,SPJ,BIHAR,E
26.3017192,85.126137,MAHWAL,MHL,SPJ,BIHAR,E
25.0960742,85.3131194,MAJJHAULIA,MJL,SPJ,BIHAR,E
25.0776311,84.9787273,MAKHDUMPUR,MDE,DNR,BIHAR,E
26.9516838,75.7406426,MANIGACHHI,MGI,SPJ,BIHAR,E
25.2072321,86.0565895,MANKATHA,MKB,DNR,BIHAR,E
24.8065742,85.0447154,MANPUR JN.,MPO,MGS,BIHAR,E
27.0428738,84.60764,MARJADAWA,MRJD,SPJ,BIHAR,E
25.9086543,86.7829725,MITHAI,MEE,SPJ,BIHAR,E
19.2190487,72.8517446,MOHAMMADPUR,MHP,SPJ,BIHAR,E
25.4310062,85.8581623,MORE,MOR,DNR,BIHAR,E
26.6308729,84.9055946,MOTIHARI COURT,MCO,SPJ,BIHAR,E
25.8845967,85.7957048,MUKATAPUR,MKPR,SPJ,BIHAR,E
26.3614377,85.7942902,MURAITHA,MRTA,SPJ,BIHAR,E
28.6726594,77.3385733,MURLIGANJ,MRIJ,SPJ,BIHAR,E
25.1421573,83.6617523,MUTHANI,MTGE,MGS,BIHAR,E
25.2965034,85.0170566,NADAUL,NDU,DNR,BIHAR,E
25.6033028,85.137137,NADWAN,NDW,DNR,BIHAR,E
25.0960742,85.3131194,NAKARDEI,NKU,SPJ,BIHAR,E
25.0960742,85.3131194,NALANDA,NLD,DNR,BIHAR,E
25.6252661,85.6315452,NANDNI LAGUNIA,NNNL,SEE,BIHAR,E
25.40163,86.9448015,NARAINPUR,NNR,SEE,BIHAR,E
26.0889066,85.4090998,NARAINPUR ANANT,NRPA,SEE,BIHAR,E
25.7474666,85.9753208,NARHAN,NRN,SPJ,BIHAR,E
25.6054159,85.1345365,NARPATGANJ,NPV,SPJ,BIHAR,E
26.0981403,87.9498058,NATESAR,NES,DNR,BIHAR,E
25.7625567,85.0978876,NAYAGAON,NYO,SEE,BIHAR,E
25.7503237,86.1115,NAYANAGAR,NWC,SPJ,BIHAR,E
25.0960742,85.3131194,NAZIRGANJ,NAZJ,SEE,BIHAR,E
25.5749395,84.9868228,NEORA,NEO,DNR,BIHAR,E
25.8598831,85.7862803,OLAPUR,OLP,SPJ,BIHAR,E
25.1205113,86.9904331,ORO (JAGDISHPUR),JDPR,DNR,BIHAR,E
25.9702034,86.5989214,PACHGACHHIA,PGC,SPJ,BIHAR,E
22.9929836,72.6649079,PANCHPOKHRIA,PPK,SPJ,BIHAR,E
26.1162654,85.9046075,PANDAUL,PDW,SPJ,BIHAR,E
24.8094812,84.8505771,PARAIYA,PRY,MGS,BIHAR,E
25.605559,85.1144963,PARMANANDPUR,PMU,SEE,BIHAR,E
25.5498528,85.1189394,PARSABAZAR,PRBZ,DNR,BIHAR,E
22.5347315,88.3959363,PARSAUNI,PSZ,SPJ,BIHAR,E
25.4036867,86.7440732,PASRAHA,PSR,SEE,BIHAR,E
24.8452997,84.4181406,PHESAR,PES,MGS,BIHAR,E
25.5863804,85.0808059,PHULWARISHARIEF,PWS,DNR,BIHAR,E
25.6215315,85.0686191,PIPARA,PPA,SPJ,BIHAR,E
25.3208644,84.4094261,PIRO,PIRO,MGS,BIHAR,E
26.611949,84.8239481,POTHAHI,PET,DNR,BIHAR,E
25.4973074,85.1015534,PRATAPGANJ,PPV,SPJ,BIHAR,E
25.482097,85.8040015,PUNARAKH,PHK,DNR,BIHAR,E
26.0981403,87.9498058,PUNPUN,PPN,DNR,BIHAR,E
25.7952583,87.4752152,PURNIA COURT,PRNC,SPJ,BIHAR,E
22.511951,88.345721,PUSAULI,PSE,MGS,BIHAR,E
25.7569413,87.0603311,RAGHUBANS NAGAR,RBN,SPJ,BIHAR,E
25.3870682,86.0106187,RAJENDRA PUL,RJO,DNR,BIHAR,E
25.9772827,85.8653358,RAMBHADRAPUR,RBZ,SPJ,BIHAR,E
26.0966429,85.3826725,RAMDAYALU NAGAR,RD,SEE,BIHAR,E
25.2035696,85.5388138,RAMPURDUMRA JN.,RDUM,DNR,BIHAR,E
26.6377084,85.4238832,RIGA,RGA,SPJ,BIHAR,E
25.605591,85.1390755,RUNISAIDPUR,RUSD,SPJ,BIHAR,E
25.5664165,84.917236,SADISOPUR,SDE,DNR,BIHAR,E
25.6611546,85.4550344,SAHDEI BUZURG,SDG,SEE,BIHAR,E
25.4266872,86.4004888,SAHIBPUR KAMAL,SKJ,SEE,BIHAR,E
25.133244,84.665437,SALIMPUR BIHAR,SMBH,DNR,BIHAR,E
25.7804646,85.2765173,SARAI,SAI,SEE,BIHAR,E
25.0960742,85.3131194,SARAIGARH,SRGR,SPJ,BIHAR,E
25.3339452,85.3802758,SARSHI,SRSI,SPJ,BIHAR,E
25.6310823,85.8679926,SATHAJAGAT,STJT,SEE,BIHAR,E
26.2288405,84.1500968,SATHI,SAHI,SPJ,BIHAR,E
25.7625567,85.0978876,SEMARA,SRA,SPJ,BIHAR,E
26.9299691,75.801737,SHIU SAGAR ROAD,SSG,MGS,BIHAR,E
25.5846146,85.1185999,SIHO,SSO,SEE,BIHAR,E
24.6550061,85.4076056,SIKTA,STF,SPJ,BIHAR,E
25.0808645,85.4308314,SILAO,SILO,DNR,BIHAR,E
26.0379255,85.4550175,SILAUT,SLT,SEE,BIHAR,E
25.4112216,86.0138726,SIMARIA,SAE,SEE,BIHAR,E
19.2380415,72.859607,SIRARI,SRY,DNR,BIHAR,E
25.0960742,85.3131194,SITALPUR,STLR,SEE,BIHAR,E
25.7940278,86.5960139,SONBARSHA KACHEHARI,SBM,SPJ,BIHAR,E
25.6323808,86.2252541,SONMA PRANPUR,SOPR,SPJ,BIHAR,E
26.2459365,86.3522749,TAMURIA,TMA,SPJ,BIHAR,E
26.1940713,86.0132527,TARSARAI,TRS,SPJ,BIHAR,E
25.5105714,85.941393,TEGHRA,TGA,SEE,BIHAR,E
25.1129853,84.9849909,TEHTA,THA,DNR,BIHAR,E
25.0960742,85.3131194,TEKABIGHA,TKBG,DNR,BIHAR,E
25.0543723,85.1543453,TEKTAR,TQR,SPJ,BIHAR,E
26.0725065,85.897386,THALWARA,TLWA,SPJ,BIHAR,E
24.7914591,84.9910986,THARBITIYA,TB,SPJ,BIHAR,E
24.8227941,85.4034985,TILAIYA,TIA,DNR,BIHAR,E
25.442095,86.066092,TILRATH,TIL,SEE,BIHAR,E
26.0348495,85.3550457,TURKI,TUR,SEE,BIHAR,E
25.568919,84.218085,TWINING GANJ,TWG,DNR,BIHAR,E
25.7807916,85.8002159,UJIARPUR,UJP,SEE,BIHAR,E
25.4676491,86.4358437,UMESH NAGAR,UMNR,SEE,BIHAR,E
26.3897601,86.3195693,VACHASPATINAGAR,VPH,SPJ,BIHAR,E
27.1956374,84.034735,VALMIKINAGAR ROAD,VKNR,SPJ,BIHAR,E
25.2030829,85.5394075,VIDYAPATI NAGAR,VPN,SEE,BIHAR,E
19.1449189,72.9372903,VINA EKMA,BCM,SPJ,BIHAR,E
25.0960742,85.3131194,WAZIRGANJ,WZJ,DNR,BIHAR,E
25.326323,85.5321,WENA,WENA,DNR,BIHAR,E
25.2354631,86.8351941,AKBARNAGAR,AKN,MLDT,BIHAR,E
24.8667264,86.9128257,BANKA,BANKA,MLDT,BIHAR,E
25.3148743,86.4928768,BIKRAMSHILLA,BKSL,MLDT,BIHAR,E
25.0960742,85.3131194,DASHARATHPUR,DRTP,MLDT,BIHAR,E
25.1714955,86.1628024,DHANAURI,DNRE,MLDT,BIHAR,E
18.9588855,72.8315245,DHARHARA,DRH,MLDT,BIHAR,E
25.0960742,85.3131194,EKCHARI,EKC,MLDT,BIHAR,E
25.3148743,86.4928768,GANGANIAN,GNNA,MLDT,BIHAR,E
25.254079,86.609942,KALYANPUR RD,KPRD,MLDT,BIHAR,E
24.6406298,86.6004074,LAHABON,LHB,ASN,BIHAR,E
24.8363795,87.0349421,MANDAR HILL,MDLE,MLDT,BIHAR,E
25.2348392,86.3576748,MASUDAN,MSDN,MLDT,BIHAR,E
25.239509,86.928345,NATNAGAR,NAT,MLDT,BIHAR,E
25.6072526,85.1381009,PURABSARAI,PUB,MLDT,BIHAR,E
25.1478729,86.7646216,RATANPUR,RPUR,MLDT,BIHAR,E
24.7719087,86.3862008,SABOUR,SBO,MLDT,BIHAR,E
25.1079019,86.993013,TIKANI,TKLE,MLDT,BIHAR,E
25.1711239,86.2238588,UREN,UXN,MLDT,BIHAR,E
26.2922027,84.346471,AMLORI SARSAR,ALS,VARANASI,BIHAR,E
26.1114187,87.941247,CHAINWA,CW,VARANASI,BIHAR,E
26.2110683,84.3594016,DAUDPUR,DDP,VARANASI,BIHAR,E
25.0960742,85.3131194,DIGHWA DUBAULI,DWDI,VARANASI,BIHAR,E
25.0960742,85.3131194,GAUTAM STHAN,GTST,VARANASI,BIHAR,E
26.4539103,84.4351689,GOPALGANJ,GOPG,VARANASI,BIHAR,E
26.586685,84.3130732,JALALPUR,JGP,VARANASI,BIHAR,E
25.605591,85.1390755,JIRADAI,ZRD,VARANASI,BIHAR,E
25.8614924,84.7604884,KHAIRAH,KYH,VARANASI,BIHAR,E
25.8521629,84.6523688,KOPA SAMHOTA,KPS,VARANASI,BIHAR,E
26.4175428,84.5044112,MANJHAGARH,MJV,VARANASI,BIHAR,E
25.0960742,85.3131194,MANJHI FLAG,MHT,VARANASI,BIHAR,E
25.9669054,84.8490911,MARHAURA,MEW,VARANASI,BIHAR,E
26.0967074,84.810457,MASHRAKH,MHC,VARANASI,BIHAR,E
25.609686,85.14265,PACHRUKHI,PCK,VARANASI,BIHAR,E
25.9176915,84.8006988,PATERHI,PEE,VARANASI,BIHAR,E
26.1803391,84.8085737,RAJAPATTI,RPV,VARANASI,BIHAR,E
26.3740166,84.5737463,RATANSARAI,RTU,VARANASI,BIHAR,E
25.799626,84.620115,REVELGANJ ,RVG,VARANASI,BIHAR,E
26.5236712,84.3604034,SASAMUSA,SSU,VARANASI,BIHAR,E
26.0348751,84.8341969,SHAM KAURIA FLAG,SMKR,VARANASI,BIHAR,E
26.3345762,84.6676397,SIDHWALIA,SQW,VARANASI,BIHAR,E
26.2264104,84.3483093,SIWAN KACHERI FLAG,SVC,VARANASI,BIHAR,E
26.6541182,84.2713004,TARIASUJAN,TRJ,VARANASI,BIHAR,E
25.0960742,85.3131194,TEKANWAS,TKV,VARANASI,BIHAR,E
25.0960742,85.3131194,BATHNAHA,BTF,KIR,BIHAR,E
28.697959,77.3272142,DALAN,DLF,KIR,BIHAR,E
25.574163,87.646944,DANDKHORA,DNQ,KIR,BIHAR,E
24.8032413,84.9997072,GALGALIA,GAGA,KIR,BIHAR,E
25.9027382,87.535125,GARHBANAILI,GBN,KIR,BIHAR,E
25.9529852,87.5299634,JALALGARH,JAG,KIR,BIHAR,E
26.0981403,87.9498058,JHAUA,JAU,KIR,BIHAR,E
26.1218988,85.3791128,KACHNA,KAU,KIR,BIHAR,E
24.8020112,84.0831686,KASBA,KUB,KIR,BIHAR,E
25.4907571,87.8271045,KHURIAL,KWE,KIR,BIHAR,E
25.4952904,87.6440462,KURETHA,KUQ,KIR,BIHAR,E
26.0526576,87.4824786,KUSIARGAON,KSY,KIR,BIHAR,E
25.4558729,85.532603,MAHIYARPUR,MHPR,KIR,BIHAR,E
26.5943424,85.5031784,MANIHARI,MHI,KIR,BIHAR,E
25.5317963,87.8574308,MUKURIA,MFA,KIR,BIHAR,E
25.4621112,87.7042909,PRANPUR ROAD,PQD,KIR,BIHAR,E
25.0960742,85.3131194,RANIPATRA,RNX,KIR,BIHAR,E
25.6649696,87.5288916,RAUTARA,RWA,KIR,BIHAR,E
26.1937037,87.322043,SIMRAHA,SMH,KIR,BIHAR,E
26.438758,84.395267,SUDHANI,SUD,KIR,BIHAR,E
19.0686457,82.1476293,AMAGURA,AGZ,WAT,CHHATTISGARH,E
21.2419629,81.657887,AMBAGAON,AGB,WAT,CHHATTISGARH,E
21.1021036,82.1817301,ARAND,ARN,SBP,CHHATTISGARH,E
21.1894663,81.955783,ARANG MAHANADI,ANMD,SBP,CHHATTISGARH,E
18.7036904,81.2387175,BACHELI,BCHL,WAT,CHHATTISGARH,E
21.1547775,82.0353842,BELSONDA,BLSN,SBP,CHHATTISGARH,E
25.4452399,78.5526603,BHANSI,BHNS,WAT,CHHATTISGARH,E
21.2786567,81.8661442,BHIMKHOJ,BMKJ,SBP,CHHATTISGARH,E
21.2786567,81.8661442,BODERAPUR,BDXX,WAT,CHHATTISGARH,E
21.2385719,81.663911,DABPAL,DBF,WAT,CHHATTISGARH,E
21.2786567,81.8661442,DANTEWARA,DWZ,WAT,CHHATTISGARH,E
21.2786567,81.8661442,DILMILI,DMK,WAT,CHHATTISGARH,E
22.5911864,88.4201673,GIDAM,GIZ,WAT,CHHATTISGARH,E
21.1884423,81.2833984,JARATI,JRT,WAT,CHHATTISGARH,E
21.2786567,81.8661442,KAKLUR,KKLU,WAT,CHHATTISGARH,E
18.8545845,81.2767535,KAMALUR,KMLR,WAT,CHHATTISGARH,E
21.2786567,81.8661442,KAWARGAON,KWGN,WAT,CHHATTISGARH,E
21.2786567,81.8661442,KHADAPA,KDPA,WAT,CHHATTISGARH,E
18.6389867,81.2599039,KIRANDUL,KRDL,WAT,CHHATTISGARH,E
22.2993195,83.095653,KOMAKHAN,KMK,SBP,CHHATTISGARH,E
21.2786567,81.8661442,KUMHAR-MARANGA,KMEZ,WAT,CHHATTISGARH,E
21.2786567,81.8661442,KUMHARSODRA,KMSD,WAT,CHHATTISGARH,E
21.2014255,81.8887562,LAKHOLI,LAE,SBP,CHHATTISGARH,E
19.8667923,82.7851075,MALIGURA,MVG,WAT,CHHATTISGARH,E
21.2264918,81.7732143,MANDIRHASAUD,MNDH,SBP,CHHATTISGARH,E
21.2786567,81.8661442,NAKTISEMRA,NKX,WAT,CHHATTISGARH,E
21.2786567,81.8661442,TOKAPAL,TPQ,WAT,CHHATTISGARH,E
21.2786567,81.8661442,ABHANPUR,AVP,R,CHHATTISGARH,E
21.1240821,80.9414226,BAKAL,BAKL,NGP,CHHATTISGARH,E
21.2370462,81.6410981,BALPUR,BPRH,BSP,CHHATTISGARH,E
22.4310328,82.032298,BELGAHNA,BIG,BSP,CHHATTISGARH,E
22.6083853,81.8983109,BHANWAR TONK,BHTK,BSP,CHHATTISGARH,E
21.2009182,81.3339251,BHILAI NAGAR,BQR,R,CHHATTISGARH,E
21.9746892,83.2593555,BHUPADEOPUR,BEF,BSP,CHHATTISGARH,E
21.251134,81.631288,BORIDAND,BRND,BSP,CHHATTISGARH,E
21.2262618,81.6400909,BORTALAO,BTL,NGP,CHHATTISGARH,E
22.0281062,82.1233821,DADHAPARA,DPH,R,CHHATTISGARH,E
21.9057048,82.0692766,DAGORI,DGS,R,CHHATTISGARH,E
23.2894428,82.395779,DARRITOLA,DTL,BSP,CHHATTISGARH,E
22.053263,82.227531,GATORA,GTW,BSP,CHHATTISGARH,E
28.732539,77.151978,GHUTKU      ,GTK,BSP,CHHATTISGARH,E
26.5002849,78.0009568,HARRI,HRB,BSP,CHHATTISGARH,E
21.874863,83.564061,JAMGA,JMG,BSP,CHHATTISGARH,E
21.1793973,80.8218536,JATKANHAR,JTR,NGP,CHHATTISGARH,E
22.000327,83.049153,JHARRADIH,JDI,BSP,CHHATTISGARH,E
22.2342822,82.0579709,KALMITAR,KLTR,BSP,CHHATTISGARH,E
21.1843419,81.3347013,KAMALPUR GRAM,KLPG,BSP,CHHATTISGARH,E
23.2778424,82.9342318,KARONJI,KJZ,BSP,CHHATTISGARH,E
21.2528345,81.6255755,KATORA,KTO,BSP,CHHATTISGARH,E
22.6652091,81.9361759,KHODRI,KOI,BSP,CHHATTISGARH,E
23.1369017,83.1436368,KHONGSARA,KGS,BSP,CHHATTISGARH,E
21.9266847,83.3319274,KIRODIMAL NAGAR,KDTR,BSP,CHHATTISGARH,E
21.883621,83.482874,KOTARLIA,KRL,BSP,CHHATTISGARH,E
22.128817,82.695696,KOTHARI ROAD,KTHD,BSP,CHHATTISGARH,E
20.4380895,81.0854399,KUSUMKASA,KYS,R,CHHATTISGARH,E
20.4380895,81.0854399,LATABOR,LBO,R,CHHATTISGARH,E
21.2786567,81.8661442,MADAWARANI,MWRN,BSP,CHHATTISGARH,E
21.2786567,81.8661442,MANDHAR,MDH,R,CHHATTISGARH,E
21.159328,81.359492,MARAUDA,MXA,R,CHHATTISGARH,E
21.1832413,81.1489677,MURHIPAR,MUP,NGP,CHHATTISGARH,E
21.1537466,80.8785291,MUSRA,MUA,NGP,CHHATTISGARH,E
21.2009182,81.3339251,NAGAR,NGE,BSP,CHHATTISGARH,E
21.2786567,81.8661442,NIPANIA,NPI,R,CHHATTISGARH,E
21.1841317,80.6940222,PANIYAJOB,PJB,NGP,CHHATTISGARH,E
21.2462023,81.6587377,PARADOL,PRDL,BSP,CHHATTISGARH,E
21.1408588,81.0996044,PARMALKASA,PMS,NGP,CHHATTISGARH,E
21.2046114,81.2169848,RASMARA,RSM,NGP,CHHATTISGARH,E
21.0589882,81.3247992,RISAMA,RSA,R,CHHATTISGARH,E
21.989277,83.183015,ROBERTSON,ROB,BSP,CHHATTISGARH,E
22.3660364,82.0102537,SALKA ROAD,SLKR,BSP,CHHATTISGARH,E
22.2127292,82.7325226,SARAGBUNDIA,SRBA,BSP,CHHATTISGARH,E
25.8818211,78.3305659,SARBAHARA,SBRA,BSP,CHHATTISGARH,E
21.2786567,81.8661442,SILYARI,SLH,R,CHHATTISGARH,E
23.2896323,82.8808021,SURAJPUR ROAD,SJQ,BSP,CHHATTISGARH,E
22.5070434,81.9959182,TENGANMADA,TGQ,BSP,CHHATTISGARH,E
23.2895538,82.2654855,UDALKACHHAR,UKR,BSP,CHHATTISGARH,E
22.268838,82.736365,URGA,URGA,BSP,CHHATTISGARH,E
22.3493045,82.6461284,URKURA,URK,R,CHHATTISGARH,E
29.1855396,77.0084263,BHODWAL MAJRI,BDMJ,DLI,DELHI,E
28.613698,77.140369,BRAR SQUARE,BRSQ,DLI,DELHI,E
28.5821997,77.1871655,DELHI SAFDARJANG,DSJ,DLI,DELHI,E
28.80134,77.1024003,HOLAMBI KALAN,HUK,DLI,DELHI,E
28.6602276,77.156752,LAJPAT NAGAR,LPNR,DLI,DELHI,E
28.5807379,77.1957662,SAROJINI NAGAR,SOJ,DLI,DELHI,E
28.5789801,77.2276287,SEWA NAGAR,SWNR,DLI,DELHI,E
28.5852333,77.0928294,SHAHBAD MOHMMADPUR,SMDP,DLI,DELHI,E
15.3449439,73.8975396,CANSAULIM,CSM,UBL,GOA,E
15.261938,74.1073939,CHANDRAGOA,CNR,UBL,GOA,E
15.2676278,73.9710326,KALEM,KM,UBL,GOA,E
15.3333646,74.2437934,KULEM,QLM,UBL,GOA,E
15.3718,73.871246,SANKVAL,SKVL,UBL,GOA,E
24.16,72.286,CHITRASANI,CTT,AJMER,GUJARAT,E
24.5035796,72.0325573,DHANERA,DQN,JODHPUR,GUJARAT,E
24.3464173,72.5341228,IQBALGARH,IQG,AJMER,GUJARAT,E
24.5870574,72.0609824,JARI,JARI,JODHPUR,GUJARAT,E
24.3276576,72.0382055,JENAL,JNZ,JODHPUR,GUJARAT,E
22.258652,71.1923805,JETHI,JTY,AJMER,GUJARAT,E
22.258652,71.1923805,KARJODA,KRJD,AJMER,GUJARAT,E
22.258652,71.1923805,RAIGARH ROAD,RGQ,AJMER,GUJARAT,E
24.4149391,72.0352425,RAMSAN,RXN,JODHPUR,GUJARAT,E
24.3791385,72.5959933,SAROTRAROAD,SZA,AJMER,GUJARAT,E
24.404448,72.6414905,SHRI AMIRGARH,SIM,AJMER,GUJARAT,E
23.2583455,72.5651801,ADARAJ MOTI,AJM,AHMEDABAD,GUJARAT,E
22.4863888,73.0346096,ADAS ROAD,ADD,VADODARA,GUJARAT,E
20.9870094,70.3308148,ADRI ROAD,ADE,BHAVNAGAR,GUJARAT,E
21.9598926,71.7111433,ALAMPAR,ALMR,BHAVNAGAR,GUJARAT,E
22.3132947,73.1765879,ALIYA WADA,ALB,RAJKOT,GUJARAT,E
22.3271512,73.2072127,AMARSAR,AXA,RAJKOT,GUJARAT,E
23.02746,72.5049767,AMBLI ROAD,ABD,AHMEDABAD,GUJARAT,E
23.4505412,72.421995,AMBLIYASAN,UMN,AHMEDABAD,GUJARAT,E
21.603302,71.2143207,AMRELI,AE,BHAVNAGAR,GUJARAT,E
22.8653013,74.4211292,ANAS,ANAS,RATLAM,GUJARAT,E
19.2178997,72.8463784,ANGADI,AGCI,VADODARA,GUJARAT,E
23.0968719,72.5790659,ANKHOL,AKL,AHMEDABAD,GUJARAT,E
23.0438661,72.6128069,ASARVA,ASV,AHMEDABAD,GUJARAT,E
20.543,72.958,ATUL,ATUL,MUMBAI CENTRAL,GUJARAT,E
23.104138,71.7769831,BAJANA,BAJN,AHMEDABAD,GUJARAT,E
22.3666881,73.143535,BAJWA,BJW,VADODARA,GUJARAT,E
22.5612872,72.9237297,BAKROL,BKRL,VADODARA,GUJARAT,E
22.7979944,71.6974749,BALA ROAD,BLRD,RAJKOT,GUJARAT,E
21.1335327,73.10527,BARDOLI,BIY,MUMBAI CENTRAL,GUJARAT,E
21.2042914,72.8368972,BAREJADI NANDEJ,BJD,VADODARA,GUJARAT,E
23.0609895,72.6712465,BAVLA,VLA,BHAVNAGAR,GUJARAT,E
23.2659531,69.6784273,BECHRAJI,BHRJ,AHMEDABAD,GUJARAT,E
21.162862,73.6658406,BHADBHUNJA,BBAI,MUMBAI CENTRAL,GUJARAT,E
21.364853,70.928817,BHADER,BADR,BHAVNAGAR,GUJARAT,E
21.6172,71.2477,BHALEJ,BAJ,VADODARA,GUJARAT,E
23.69177,72.390756,BHANDU  MOTI DAU,BHU,AHMEDABAD,GUJARAT,E
25.4536033,78.5569738,BHANKODA,BKD,AHMEDABAD,GUJARAT,E
23.3263803,72.4718941,BHATARIYA,BTYA,AHMEDABAD,GUJARAT,E
23.4197088,73.8036752,BHATEL,BHTL,RAJKOT,GUJARAT,E
22.0884797,69.2798977,BHATIYA,BHTA,RAJKOT,GUJARAT,E
23.0362297,72.5671626,BHATSAR,BATS,AHMEDABAD,GUJARAT,E
21.8479524,70.2362877,BHAYAVADAR,BHY,BHAVNAGAR,GUJARAT,E
22.258652,71.1923805,BHESANA MANKANAJ,BSKN,AHMEDABAD,GUJARAT,E
21.1358003,72.8517848,BHESTAN,BHET,MUMBAI CENTRAL,GUJARAT,E
24.194731,72.008667,BHILDI JN.,BLDI,AHMEDABAD,GUJARAT,E
22.258652,71.1923805,BHIMASAR,BMSR,AHMEDABAD,GUJARAT,E
22.258652,71.1923805,BHIMNATH,BNH,BHAVNAGAR,GUJARAT,E
18.9723161,72.8144941,BHOPALKA,BPKA,RAJKOT,GUJARAT,E
22.0931742,69.6626054,BHOYANI,BHAN,AHMEDABAD,GUJARAT,E
20.513177,72.948615,BILESHWAR,BLWR,RAJKOT,GUJARAT,E
21.200774,72.840205,BILIMORA (NG),BM,MUMBAI CENTRAL,GUJARAT,E
21.6302662,72.9940884,BILKHA,BILK,BHAVNAGAR,GUJARAT,E
22.401737,72.847921,BOCHSAN JN,BCHN,VADODARA,GUJARAT,E
20.9490279,72.9287427,BODELI,BDE,VADODARA,GUJARAT,E
22.8664971,74.3471086,BORDI,BIO,RATLAM,GUJARAT,E
22.258652,71.1923805,BRAHMANWADA,BMDI,AHMEDABAD,GUJARAT,E
19.0573895,72.8411163,CHALALA,CLC,BHAVNAGAR,GUJARAT,E
23.2293105,72.6741311,CHAMARAJ,CJR,RAJKOT,GUJARAT,E
22.258652,71.1923805,CHANASAMA,CSMA,AHMEDABAD,GUJARAT,E
12.992148,77.5966405,CHANCHELAV,CCL,RATLAM,GUJARAT,E
23.1113883,72.5634612,CHANDKHEDA,CDK,AHMEDABAD,GUJARAT,E
23.0752015,72.5440744,CHANDOLIYA,CLDY,AHMEDABAD,GUJARAT,E
22.428303,70.5392191,CHANOL,CX,RAJKOT,GUJARAT,E
22.5413759,73.3930063,CHAPANER RD,CPN,VADODARA,GUJARAT,E
22.2832009,70.7968729,CHARDU,CARD,AHMEDABAD,GUJARAT,E
21.7249191,71.9574652,CHARODI,CE,AHMEDABAD,GUJARAT,E
22.872463,73.3609935,CHHAPI,CHP,AHMEDABAD,GUJARAT,E
23.0219039,72.5864715,CHHATRAL,CTRL,AHMEDABAD,GUJARAT,E
22.258652,71.1923805,CHHAYAPURI,CYI,VADODARA,GUJARAT,E
22.3067273,69.8645258,CHHUCHHAPURA,CCP,VADODARA,GUJARAT,E
21.1950292,72.8321437,CHIRAI,CHIB,AHMEDABAD,GUJARAT,E
21.1984964,72.8420457,CHITAL,CTL,BHAVNAGAR,GUJARAT,E
22.258652,71.1923805,CHORANDA,CRND,VADODARA,GUJARAT,E
21.0549532,70.2904059,CHORVAD ROAD,CVR,BHAVNAGAR,GUJARAT,E
21.7249191,71.9574652,CHUDA,CDA,BHAVNAGAR,GUJARAT,E
22.258652,71.1923805,DABHODA,DBO,AHMEDABAD,GUJARAT,E
22.137731,73.416086,DABHOI JN,DB,VADODARA,GUJARAT,E
21.21987,72.852676,DAKOR,DK,VADODARA,GUJARAT,E
23.2504166,69.6754418,DALADI,DL,RAJKOT,GUJARAT,E
23.0204765,72.5699816,DAMNAGAR,DME,BHAVNAGAR,GUJARAT,E
23.381569,72.44897,DANGARWA,DNW,AHMEDABAD,GUJARAT,E
22.6037147,73.1100236,DELVADA,DVA,BHAVNAGAR,GUJARAT,E
28.6672941,77.251195,DETHALI,DHLI,AHMEDABAD,GUJARAT,E
23.339974,72.1843,DETROJ,DTJ,AHMEDABAD,GUJARAT,E
20.7186159,70.9811495,DEVSANA,DEU,AHMEDABAD,GUJARAT,E
21.52152,70.454883,DHANALA,DHNL,AHMEDABAD,GUJARAT,E
24.2453074,72.180869,DHANPURA,DNPR,AHMEDABAD,GUJARAT,E
21.231446,72.833429,DHAREWADA,DRW,AHMEDABAD,GUJARAT,E
21.326802,71.027734,DHARI,DARI,BHAVNAGAR,GUJARAT,E
21.7827124,71.5180215,DHASA JN.,DAS,BHAVNAGAR,GUJARAT,E
23.6707824,72.2816598,DHINOJ,DHJ,AHMEDABAD,GUJARAT,E
22.7321248,72.4343473,DHOLKA,DOK,BHAVNAGAR,GUJARAT,E
21.721963,70.444436,DHORAJI,DJI,BHAVNAGAR,GUJARAT,E
21.2361799,73.3551302,DHUVA,DU,RAJKOT,GUJARAT,E
21.7002151,72.9864295,DIGSAR,DXR,RAJKOT,GUJARAT,E
24.2370852,72.1795603,DISA,DISA,AHMEDABAD,GUJARAT,E
20.687646,72.949425,DUNGRI,DGI,MUMBAI CENTRAL,GUJARAT,E
21.1751266,72.8064762,GADHKADA,GKD,BHAVNAGAR,GUJARAT,E
21.6268076,72.9993586,GANGADHRA,GGAR,MUMBAI CENTRAL,GUJARAT,E
22.258652,71.1923805,GAWADA MALOSAN,MLNR,AHMEDABAD,GUJARAT,E
22.9169317,72.6551911,GERATPUR,GER,VADODARA,GUJARAT,E
23.576194,72.66902,GERITO KOLVADA,GTKD,AHMEDABAD,GUJARAT,E
22.283027,70.798574,GHELDA,GLD,AHMEDABAD,GUJARAT,E
21.6459893,73.0080626,GHUMASAN,GUS,AHMEDABAD,GUJARAT,E
22.258652,71.1923805,GOJARIYA,GJR,AHMEDABAD,GUJARAT,E
22.258652,71.1923805,GOPALPUR,GPPR,AHMEDABAD,GUJARAT,E
18.5382806,73.8313101,GOPJAM,GPP,BHAVNAGAR,GUJARAT,E
21.7713143,73.2213549,GORA GHUMA,GGM,AHMEDABAD,GUJARAT,E
22.1758955,69.0411383,GORINJA,GRJA,RAJKOT,GUJARAT,E
21.2067014,72.8398955,GOTHAJ,GTE,VADODARA,GUJARAT,E
21.2908689,72.8790843,GOTHANGAM,GTX,VADODARA,GUJARAT,E
21.1904102,72.7951594,GUNJA,GUJ,AHMEDABAD,GUJARAT,E
28.6666562,77.3477622,HADALABHAL,HLB,BHAVNAGAR,GUJARAT,E
22.4284183,70.4709503,HADMATIYA,HM,RAJKOT,GUJARAT,E
23.0184258,71.1828195,HALVAD,HVD,AHMEDABAD,GUJARAT,E
22.258652,71.1923805,HAPA ROAD,HPRD,AHMEDABAD,GUJARAT,E
21.7249191,71.9574652,HATHURAN,HAT,VADODARA,GUJARAT,E
23.576008,72.96082,HIMMATNAGAR,HMT,AHMEDABAD,GUJARAT,E
23.8375784,73.0044293,IDAR,IDAR,AHMEDABAD,GUJARAT,E
22.1497029,73.1566266,ITOLA,ITA,VADODARA,GUJARAT,E
23.744358,72.9503667,JADAR,JADR,AHMEDABAD,GUJARAT,E
21.5228171,70.4586308,JAGUDHAN,JDN,AHMEDABAD,GUJARAT,E
22.8099603,70.8733821,JAKHAWADA,JKA,AHMEDABAD,GUJARAT,E
22.2729861,70.7984787,JAKSI,JKS,AHMEDABAD,GUJARAT,E
22.2428255,71.801751,JALILA ROAD,JIL,BHAVNAGAR,GUJARAT,E
21.815536,71.6323668,JALIYA,JA,BHAVNAGAR,GUJARAT,E
21.8513744,70.2383489,JALIYA DEVANI,JALD,RAJKOT,GUJARAT,E
23.2235114,72.8736985,JALIYAMATH,JLM,AHMEDABAD,GUJARAT,E
21.9067749,70.0313134,JAMJODHPUR,JDH,BHAVNAGAR,GUJARAT,E
22.258652,71.1923805,JAMWAN THALI,WTJ,RAJKOT,GUJARAT,E
23.0762179,71.7024851,JATPIPLI,JTX,AHMEDABAD,GUJARAT,E
20.371237,72.90634,JEKOT,JKT,RATLAM,GUJARAT,E
28.6697907,77.3688452,JETPUR,JTP,BHAVNAGAR,GUJARAT,E
23.3263803,72.4718941,JHULASAN,JUL,AHMEDABAD,GUJARAT,E
23.1609236,71.9341873,JHUND,JN,AHMEDABAD,GUJARAT,E
23.471336,72.289996,JOTANA,JTN,AHMEDABAD,GUJARAT,E
23.2969094,72.3283113,KADI,KADI,AHMEDABAD,GUJARAT,E
23.8910074,73.0952382,KADIYADRA,KADR,AHMEDABAD,GUJARAT,E
23.1354752,72.6565084,KAHER,KRAI,MUMBAI CENTRAL,GUJARAT,E
22.258652,71.1923805,KAIYAL SEDHAVI,KYSO,AHMEDABAD,GUJARAT,E
23.0978792,72.5782249,KALI ROAD,KLRD,AHMEDABAD,GUJARAT,E
23.8628117,72.3759475,KAMLI,KMLI,AHMEDABAD,GUJARAT,E
22.4883402,70.8768408,KANAKOT,KNKT,RAJKOT,GUJARAT,E
22.3200122,69.8965007,KANALAUS,KNLS,RAJKOT,GUJARAT,E
23.2545139,69.6771873,KANIJ,KANJ,VADODARA,GUJARAT,E
22.6152454,72.9218792,KANJARI BORIYAVI ,KBRV,VADODARA,GUJARAT,E
23.6024932,72.3889221,KANSIYANES,KANS,BHAVNAGAR,GUJARAT,E
22.788914,73.64754,KANSUDHI,KIZ,RATLAM,GUJARAT,E
12.992148,77.5966405,KARAMBELI,KEB,MUMBAI CENTRAL,GUJARAT,E
22.258652,71.1923805,KASHIPURA SARAR ,KSPR,VADODARA,GUJARAT,E
22.307159,73.181219,KATARIYA,KATR,AHMEDABAD,GUJARAT,E
21.6459893,73.0080626,KATHANA,KTNA,VADODARA,GUJARAT,E
22.9679988,72.4305244,KATOSAN ROAD,KTRD,AHMEDABAD,GUJARAT,E
22.4686097,70.0233203,KAYAVAROHAN,KV,VADODARA,GUJARAT,E
21.606753,71.2260978,KHAKHARIYA,KKK,BHAVNAGAR,GUJARAT,E
22.258652,71.1923805,KHAKHRECHI,KHXB,AHMEDABAD,GUJARAT,E
23.0973386,72.4867318,KHAMBEL,KVH,AHMEDABAD,GUJARAT,E
22.3615682,70.7171257,KHANDERI,KHDI,RAJKOT,GUJARAT,E
23.3909941,72.9129736,KHARIAMARAPUR,KIA,AHMEDABAD,GUJARAT,E
21.186677,72.837445,KHARSALIYA,KRSA,VADODARA,GUJARAT,E
24.0297045,73.0414732,KHEDBRAHMA,KDBM,AHMEDABAD,GUJARAT,E
22.277847,70.798775,KHERALU,KRU,AHMEDABAD,GUJARAT,E
22.281968,73.1658541,KHEROL,KOY,AHMEDABAD,GUJARAT,E
22.258652,71.1923805,KHIJADIYA,KJV,BHAVNAGAR,GUJARAT,E
22.7518252,73.1510895,KHODIYAR,KHD,AHMEDABAD,GUJARAT,E
23.030288,72.6565612,KHODIYAR MANDIR,KDMR,BHAVNAGAR,GUJARAT,E
23.00973,72.514212,KHORANA,KHC,RAJKOT,GUJARAT,E
21.1281597,73.4726465,KIKAKUI ROAD,KKRD,MUMBAI CENTRAL,GUJARAT,E
21.7249191,71.9574652,KODINAR,KODR,BHAVNAGAR,GUJARAT,E
22.258652,71.1923805,KOSAD,KSE,VADODARA,GUJARAT,E
22.6279376,72.3015592,KOTHGANGAD,KTGD,BHAVNAGAR,GUJARAT,E
21.5510304,73.0084017,KUKARWADA,KKRV,AHMEDABAD,GUJARAT,E
22.5486722,72.925909,KUKMA,KEMA,AHMEDABAD,GUJARAT,E
22.2783051,71.6835916,KUNDLI,KDI,BHAVNAGAR,GUJARAT,E
21.6531205,70.9745336,KUNKAVAV,KKV,BHAVNAGAR,GUJARAT,E
22.258652,71.1923805,KURANGA,KRGA,RAJKOT,GUJARAT,E
22.258652,71.1923805,LAKADIYA,LKZ,AHMEDABAD,GUJARAT,E
22.258652,71.1923805,LAKHA BAWAL,LKBL,RAJKOT,GUJARAT,E
22.5716996,71.1485606,LAKHAMANCHI,LMC,RAJKOT,GUJARAT,E
20.7609213,73.0591591,LAKHTAR,LTR,RAJKOT,GUJARAT,E
21.1614062,73.6180276,LAKKADKOT,LKKD,MUMBAI CENTRAL,GUJARAT,E
22.1681306,72.9457493,LAKODARA,LKD,VADODARA,GUJARAT,E
22.1946122,69.9525636,LALPURJAM,LPJ,BHAVNAGAR,GUJARAT,E
23.457482,72.49347,LANGHNAJ,LNJ,AHMEDABAD,GUJARAT,E
23.0358672,72.5672325,LATHI,LAT,BHAVNAGAR,GUJARAT,E
21.5848708,72.222087,LATHIDAD,LTD,BHAVNAGAR,GUJARAT,E
22.924748,71.831828,LILAPUR ROAD,LPR,RAJKOT,GUJARAT,E
21.539891,71.372555,LILIYAMOTA,LMO,BHAVNAGAR,GUJARAT,E
19.0473032,72.8611686,LIMBODARA,LBD,AHMEDABAD,GUJARAT,E
22.258652,71.1923805,LIMKHEDA,LMK,RATLAM,GUJARAT,E
23.5269556,72.3558572,LINCH,LCH,AHMEDABAD,GUJARAT,E
21.6045299,71.2207603,LODRA,LRA,AHMEDABAD,GUJARAT,E
22.258652,71.1923805,LOTHAL BHURKI,LHBK,BHAVNAGAR,GUJARAT,E
21.715889,71.0866016,LUNIDHAR,LDU,BHAVNAGAR,GUJARAT,E
22.258652,71.1923805,LUNSARIYA,LXR,RAJKOT,GUJARAT,E
23.0245855,72.5783393,LUSHALA,LAL,BHAVNAGAR,GUJARAT,E
23.0684465,70.1476613,MADHAPPUR RD,MADP,AHMEDABAD,GUJARAT,E
21.1458188,73.2429016,MADHI,MID,MUMBAI CENTRAL,GUJARAT,E
21.522184,70.4578768,MAHADEVPURA,MHDP,AHMEDABAD,GUJARAT,E
22.4946709,72.6545835,MAKAKHAD,MAYA,AHMEDABAD,GUJARAT,E
22.2336259,73.1759241,MAKARPURA,MPR,VADODARA,GUJARAT,E
23.1034031,70.7553175,MALIYA MIYANA,MALB,AHMEDABAD,GUJARAT,E
21.1983275,72.8346387,MANGALMAHUDI,MAM,RATLAM,GUJARAT,E
23.128609,72.704578,MEDRA,MDRA,AHMEDABAD,GUJARAT,E
22.2623186,69.8119964,MODPUR,MDPR,RAJKOT,GUJARAT,E
22.833521,72.36488,MORAIYA,MORA,BHAVNAGAR,GUJARAT,E
22.676246,71.4348529,MULI ROAD,MOL,RAJKOT,GUJARAT,E
28.6186691,77.2419073,NABIPUR,NIU,VADODARA,GUJARAT,E
22.4179436,73.0951265,NANDESARI BG,NDSR,VADODARA,GUJARAT,E
23.173591,72.815771,NANDOL DEHGAM,NHM,AHMEDABAD,GUJARAT,E
28.6672941,77.251195,NARODA,NRD,AHMEDABAD,GUJARAT,E
23.036088,72.56151,NAZARBAG,NZR,RAJKOT,GUJARAT,E
22.027768,71.7086112,NINGALA,NGA,BHAVNAGAR,GUJARAT,E
22.6232794,73.1173544,OD BG,ODE,VADODARA,GUJARAT,E
22.4734224,70.0705035,OKHAMADHI,OKD,RAJKOT,GUJARAT,E
22.4297135,70.60546,PADADHARI,PDH,RAJKOT,GUJARAT,E
23.576008,72.96082,PALITANA,PIT,BHAVNAGAR,GUJARAT,E
20.1603213,72.7879368,PANCHOT,PHC,AHMEDABAD,GUJARAT,E
22.307973,73.177104,PANELI MOTI,PLM,BHAVNAGAR,GUJARAT,E
23.036238,72.581112,PANOLI,PAO,VADODARA,GUJARAT,E
23.3095178,72.4872994,PANSAR,PN,AHMEDABAD,GUJARAT,E
23.135876,73.7280196,PARDI,PAD,MUMBAI CENTRAL,GUJARAT,E
22.4857754,72.8017868,PETLAD JN.,PTD,VADODARA,GUJARAT,E
21.8367322,73.1108866,PILOL,PIO,VADODARA,GUJARAT,E
23.5164983,72.7314045,PILWAI ROAD,PWR,AHMEDABAD,GUJARAT,E
23.0762179,71.7024851,PIPLI,PPLI,RAJKOT,GUJARAT,E
22.8189886,73.9102597,PIPLOD JN.,PPD,RATLAM,GUJARAT,E
20.983755,70.6911744,PRANCHI ROAD,PCC,BHAVNAGAR,GUJARAT,E
23.0261109,72.6004295,PRANTIJ,PRJ,AHMEDABAD,GUJARAT,E
28.6668615,77.1983411,PRATAPNAGAR,PRTN,VADODARA,GUJARAT,E
22.972641,72.647661,PUDGAM GANESHPURA,PDGP,AHMEDABAD,GUJARAT,E
21.0466093,71.456188,RAJULA CITY,RJU,BHAVNAGAR,GUJARAT,E
21.1039394,71.4791242,RAJULA JN.,RLA,BHAVNAGAR,GUJARAT,E
22.258652,71.1923805,RAKHIAL,RKH,AHMEDABAD,GUJARAT,E
22.6364168,71.356236,RAMPARDA,RA,RAJKOT,GUJARAT,E
21.698624,69.726721,RANAVAV,RWO,BHAVNAGAR,GUJARAT,E
22.2376649,73.0884867,RANDALA,RLD,AHMEDABAD,GUJARAT,E
19.280371,72.865783,RANDHANPUR,RDHP,AHMEDABAD,GUJARAT,E
23.6998905,72.5456724,RANDHEJA,RDJ,AHMEDABAD,GUJARAT,E
22.4055931,73.1127691,RANOLI,RNO,VADODARA,GUJARAT,E
22.3598247,71.7171514,RANPUR,RUR,BHAVNAGAR,GUJARAT,E
22.258652,71.1923805,RANTEJ,RTJ,AHMEDABAD,GUJARAT,E
23.760636,72.2131484,RANUJ,RUJ,AHMEDABAD,GUJARAT,E
22.2376649,73.0884867,RATNAL,RUT,AHMEDABAD,GUJARAT,E
21.7307998,71.3888407,RENTIYA,RET,RATLAM,GUJARAT,E
22.125864,70.8014036,RIBADA,RBR,BHAVNAGAR,GUJARAT,E
23.009571,71.927883,SABLI ROAD,SR,RAJKOT,GUJARAT,E
22.6014745,73.0116553,SADANAPURA,SNA,VADODARA,GUJARAT,E
23.0654443,72.6361094,SAHIJPUR,SAHP,AHMEDABAD,GUJARAT,E
23.20938,72.520778,SAIJ SERTHA RD,SHRD,AHMEDABAD,GUJARAT,E
22.4845328,73.3024598,SAMALAYA,SMLA,VADODARA,GUJARAT,E
22.3038945,70.8021599,SANAND,SAU,AHMEDABAD,GUJARAT,E
22.258652,71.1923805,SANKHARI,SNHR,AHMEDABAD,GUJARAT,E
22.1769983,73.5573399,SANKHEDA BHADURPUR,SAK,VADODARA,GUJARAT,E
23.0255722,72.5261945,SANOSARA,SOA,BHAVNAGAR,GUJARAT,E
22.7955887,73.8013968,SANT ROAD,SAT,RATLAM,GUJARAT,E
22.1633349,70.7927628,SARANGPUR RD.,SAPR,BHAVNAGAR,GUJARAT,E
23.0715835,72.6426965,SARDARGRAM,SDGM,AHMEDABAD,GUJARAT,E
22.7228618,71.6222421,SARKHEJ,SEJ,BHAVNAGAR,GUJARAT,E
21.168716,70.602212,SASANGIR,SASG,BHAVNAGAR,GUJARAT,E
22.276326,70.798059,SATADHAR,STDR,BHAVNAGAR,GUJARAT,E
23.0379611,72.6444048,SAVNI,SVB,BHAVNAGAR,GUJARAT,E
21.317011,72.887494,SAYAN,SYN,VADODARA,GUJARAT,E
20.9716187,73.3103183,SEVALIYA,SVL,VADODARA,GUJARAT,E
20.6103387,72.9293395,SHAPUR,SHH,BHAVNAGAR,GUJARAT,E
23.112136,72.5839525,SHELAVI,SHLV,AHMEDABAD,GUJARAT,E
22.258652,71.1923805,SHOBHASAN,SXS,AHMEDABAD,GUJARAT,E
22.5466259,70.8943047,SINDHAVADAR,SDD,RAJKOT,GUJARAT,E
23.4885932,72.8942383,SONASAN,SNSN,AHMEDABAD,GUJARAT,E
22.258652,71.1923805,SONIPUR RUPAL,SNRP,AHMEDABAD,GUJARAT,E
22.258652,71.1923805,SURBARI,SRBR,AHMEDABAD,GUJARAT,E
22.4216818,69.8284699,TAGDI,TID,BHAVNAGAR,GUJARAT,E
21.0425068,70.5227367,TALALA JN,TAV,BHAVNAGAR,GUJARAT,E
22.5503087,72.9336941,TALOD,TOD,AHMEDABAD,GUJARAT,E
21.6938933,72.9755829,TARANGA HILL,TRAH,AHMEDABAD,GUJARAT,E
19.064896,72.837496,THASARA,TAS,VADODARA,GUJARAT,E
22.808626,73.381067,TIMBA ROAD,TBA,VADODARA,GUJARAT,E
22.2469695,68.9601599,TIMBARVA,TBV,MUMBAI CENTRAL,GUJARAT,E
22.8003134,73.466287,TUWA BG,TUWA,VADODARA,GUJARAT,E
21.9050316,71.7050157,UJALVAV,UJ,BHAVNAGAR,GUJARAT,E
21.1486811,73.556927,UKAI SONGADH,USD,MUMBAI CENTRAL,GUJARAT,E
24.0997991,72.4202523,UMARDASHI,UM,AHMEDABAD,GUJARAT,E
22.258652,71.1923805,UMRETH,UMH,VADODARA,GUJARAT,E
20.8528824,73.3387568,UNAI & VANSADA ROAD,UNI,MUMBAI CENTRAL,GUJARAT,E
22.258652,71.1923805,UNAVASAN,UVSN,AHMEDABAD,GUJARAT,E
23.098714,72.541003,UPLETA,UA,BHAVNAGAR,GUJARAT,E
22.97811,72.488951,USRA,USR,RATLAM,GUJARAT,E
22.655198,72.8892774,UTARSANDA,UTD,VADODARA,GUJARAT,E
21.2307167,72.8699871,UTRAN,URN,VADODARA,GUJARAT,E
20.6078591,72.933553,VADAL,VAL,BHAVNAGAR,GUJARAT,E
21.7800834,72.146848,VADALI,VAE,AHMEDABAD,GUJARAT,E
23.78461,72.633243,VADNAGAR,VDG,AHMEDABAD,GUJARAT,E
22.258652,71.1923805,VADOD,VXD,VADODARA,GUJARAT,E
22.5915534,72.8739818,VADTAL SWAMI NARAYAN,VTL,VADODARA,GUJARAT,E
24.368662,71.5342133,VAGADIA,VD,RAJKOT,GUJARAT,E
22.4652521,73.4340139,VALLABH VIDYANAGAR,VLYN,VADODARA,GUJARAT,E
23.094657,72.0032358,VANI ROAD,VNRD,RAJKOT,GUJARAT,E
21.867341,73.0525741,VAREDIA,VRE,VADODARA,GUJARAT,E
22.258652,71.1923805,VARETHA,VTDI,AHMEDABAD,GUJARAT,E
22.187651,73.171031,VARNAMA,VRM,VADODARA,GUJARAT,E
22.258652,71.1923805,VARTEJ,VTJ,BHAVNAGAR,GUJARAT,E
20.3733412,72.9079089,VARWALA,VVA,RAJKOT,GUJARAT,E
22.45275,73.060532,VASAD  JN.,VDA,VADODARA,GUJARAT,E
23.0346277,71.5952531,VASADVA,VSV,AHMEDABAD,GUJARAT,E
23.5306997,72.5758904,VASAI DABHALA,VAS,AHMEDABAD,GUJARAT,E
22.9590183,72.6297811,VATVA,VTA,AHMEDABAD,GUJARAT,E
21.7503945,72.1422896,VAVADI KHURD,VKG,VADODARA,GUJARAT,E
22.2982155,70.7787729,VAVDI,VVD,BHAVNAGAR,GUJARAT,E
19.168869,72.9349833,VEDCHHA,VDH,MUMBAI CENTRAL,GUJARAT,E
21.6938933,72.9755829,VENPURA,VNP,AHMEDABAD,GUJARAT,E
21.1802017,71.4467803,VIJAPADI ROAD,VJD,BHAVNAGAR,GUJARAT,E
22.258652,71.1923805,VIJAPUR,VJF,AHMEDABAD,GUJARAT,E
22.5567735,72.9598619,VIRAMDAD,VQD,RAJKOT,GUJARAT,E
23.0923156,72.542045,VIROCHANNAGAR,VCN,AHMEDABAD,GUJARAT,E
22.258652,71.1923805,VIRPUR,VRR,BHAVNAGAR,GUJARAT,E
21.3402787,70.7557297,VISAWADAR,VSW,BHAVNAGAR,GUJARAT,E
23.017731,72.583492,VISHVAMITRI,VSI,VADODARA,GUJARAT,E
23.7120164,72.5476277,VISNAGAR,VNG,AHMEDABAD,GUJARAT,E
22.258652,71.1923805,WADHARAVA,WDHR,AHMEDABAD,GUJARAT,E
22.7027069,71.6724122,WADHVAN CITY,WC,BHAVNAGAR,GUJARAT,E
22.258652,71.1923805,WAGHAI,WGI,MUMBAI CENTRAL,GUJARAT,E
21.7996179,69.8734642,WANSJALIYA JN,WSJ,BHAVNAGAR,GUJARAT,E
28.0678134,77.3516528,RUNDHI,RDE,AGC,HARYANA,E
27.9738782,77.3608919,SHOLAKA,SHLK,AGC,HARYANA,E
29.9047974,76.8994877,AMIN,AMIN,DLI,HARYANA,E
28.7366792,76.859574,ASAUDAH,ASE,DLI,HARYANA,E
28.8955152,76.606611,ASTHAL BOHAR,ABO,DLI,HARYANA,E
29.4499015,76.9663764,BABARPUR,BBDE,DLI,HARYANA,E
29.6129544,76.9652062,BAJIDAN JATTAN,BZJT,DLI,HARYANA,E
29.0587757,76.085601,BARSOLA,BZO,DLI,HARYANA,E
29.3679546,75.8878308,BARWALA,BXC,UMB,HARYANA,E
28.4644044,76.9832452,BASAI DHANKOT,BDXT,DLI,HARYANA,E
29.7519804,76.9557631,BHAINI KHURD,BZK,DLI,HARYANA,E
29.2738684,76.3236845,BISHANPURA HARYANA,BSPH,DLI,HARYANA,E
30.152971,77.196373,DARAZPUR,DZP,UMB,HARYANA,E
28.435812,77.003453,DHAMTAN SAHIB,DTN,DLI,HARYANA,E
28.4962848,77.0189067,DHANSU,DNX,UMB,HARYANA,E
30.6864116,76.8533575,DHARODI,DHY,DLI,HARYANA,E
30.0664988,76.8444514,DHIRPUR,DPP,DLI,HARYANA,E
30.0185592,76.8424264,DHODA KHERI,DHKR,DLI,HARYANA,E
30.1151785,76.8537211,DHOLA MAJRA,DHZM,DLI,HARYANA,E
28.4729318,76.9578248,DHULKOT,DKT,UMB,HARYANA,E
29.3183031,76.979506,DIWANA,DWNA,DLI,HARYANA,E
30.2956452,76.8843917,DUKHERI,DOKY,UMB,HARYANA,E
28.4672436,76.8253917,FARUK NAGAR,FN,DLI,HARYANA,E
29.5409707,76.9652962,GHARAUNDA,GRA,DLI,HARYANA,E
30.6956961,76.860031,GHASO,GSO,DLI,HARYANA,E
28.7997873,76.7399197,GHEVRA,GHE,DLI,HARYANA,E
29.0587757,76.085601,HIMMATPURA,HMQ,DLI,HARYANA,E
28.479685,77.31224,INCHHAPURI,IHP,DLI,HARYANA,E
28.7997873,76.7399197,ISMAILA HARYANA,ISM,DLI,HARYANA,E
29.1687164,76.3683379,JAI-JAI WANTI,JJT,DLI,HARYANA,E
29.0587757,76.085601,JARODA NARA,JDW,DLI,HARYANA,E
29.0587757,76.085601,JATAULA JAURI SAMPKA,JSKA,DLI,HARYANA,E
29.309761,76.317617,JIND CITY,JCY,DLI,HARYANA,E
30.0822604,77.3407877,KALANOUR,KNZ,UMB,HARYANA,E
29.16787,75.726712,KALAYAT,KIY,DLI,HARYANA,E
29.014286,76.4822996,KARAINTHI,KHV,DLI,HARYANA,E
30.2652132,76.9335232,KESRI,KES,UMB,HARYANA,E
29.16787,75.726712,KHALILPUR,KIP,DLI,HARYANA,E
28.4731918,77.5096141,KHARAWAR,KRZ,DLI,HARYANA,E
28.7696625,77.1158414,KHERA KALAN,KHKN,DLI,HARYANA,E
29.4001979,76.9070274,KHUKRANA,KURN,DLI,HARYANA,E
29.0804235,76.4287404,KILA ZAFARGARH,KZH,DLI,HARYANA,E
29.0587757,76.085601,KINANA,KIU,DLI,HARYANA,E
29.3999385,76.8100136,MADLAUDA,MLDE,DLI,HARYANA,E
29.969467,76.8519728,MOHRI,MOY,DLI,HARYANA,E
29.1628852,75.7465975,MUDLANA,MDLA,DLI,HARYANA,E
30.1807496,77.1228985,MUSTAFABAD,MFB,UMB,HARYANA,E
28.491712,77.301262,NARINDERAPURA,NPX,DLI,HARYANA,E
28.4399465,77.0089226,NAULATHA,NLH,DLI,HARYANA,E
29.8318228,76.9250288,NILO KHERI,NLKR,DLI,HARYANA,E
28.4012064,76.8573475,PATLI,PT ,DLI,HARYANA,E
29.884133,76.621062,PEHOWA ROAD,PHWR,DLI,HARYANA,E
29.3560525,76.4983673,PILU KHERA,PKDE,DLI,HARYANA,E
29.4498655,75.8888876,RAIPUR HARYANA,RPHR,UMB,HARYANA,E
28.9039868,77.059103,RATHDHANA,RDDE,DLI,HARYANA,E
29.3975433,76.6618574,SAFIDON,SFDE,DLI,HARYANA,E
28.3868393,77.2951174,SAJUMA,SJM,DLI,HARYANA,E
28.960483,76.5181231,SAMAR GOPALPUR,SMF,DLI,HARYANA,E
29.063421,77.012784,SANDAL KALAN,SLKN,DLI,HARYANA,E
28.4410477,77.1021188,SEWAHA,SWDE,DLI,HARYANA,E
29.797916,76.938429,TARAORI,TRR,DLI,HARYANA,E
29.966987,76.824889,THANESAR CITY,TNDE,DLI,HARYANA,E
29.8501173,76.5272856,TIK,TIK,DLI,HARYANA,E
29.4671344,76.1782979,UCHANA,UCA,DLI,HARYANA,E
29.5004295,75.8825337,UKLANA,UKN,UMB,HARYANA,E
28.0093733,76.0552368,AMARPUR JORASI,APJ,JAIPUR,HARYANA,E
28.405645,77.318575,ATELI,AEL,JAIPUR,HARYANA,E
28.6893012,76.9471841,BAMLA,BMLL,BIKANER,HARYANA,E
29.1744286,75.7139298,BARAGUDAH,BGD,BIKANER,HARYANA,E
28.0698692,76.5784474,BAWAL,BWL,JAIPUR,HARYANA,E
28.9393158,76.0324819,BHAWANI KHERA,BWK,BIKANER,HARYANA,E
28.8253093,76.1439991,BHIWANI CITY,BNWC,BIKANER,HARYANA,E
29.0095384,75.6467432,CHARAUD,CRW,BIKANER,HARYANA,E
28.2907869,76.3917053,DAHINA ZAINABAD,DZB,BIKANER,HARYANA,E
29.4625492,75.2604742,DING,DNG,BIKANER,HARYANA,E
29.2097049,75.5736555,JAKHOD KHERA,JKHI,BIKANER,HARYANA,E
28.5004318,77.3374452,JATUSANA,JTS,BIKANER,HARYANA,E
28.5067172,76.3738124,JHARLI,JRL,BIKANER,HARYANA,E
29.0119738,75.9877318,JITAKHERI,JKZ,BIKANER,HARYANA,E
28.3214684,76.3017934,KANINAKHAS,KNNK,BIKANER,HARYANA,E
28.188415,76.502132,KHORI,KORI,JAIPUR,HARYANA,E
29.0587757,76.085601,KISHANGARH BALAWAS,KGBS,BIKANER,HARYANA,E
28.1511634,76.3989043,KUND,KUND,JAIPUR,HARYANA,E
29.0587757,76.085601,LAHLI,LHLL,BIKANER,HARYANA,E
30.2512397,77.0456434,MANHERU,MHU,BIKANER,HARYANA,E
28.4988755,77.297157,MIRZAPUR BACHHOD,MBV,JAIPUR,HARYANA,E
28.2503038,76.4990958,NANGALMUNDI,NNU,BIKANER,HARYANA,E
28.886768,76.612857,NIZAMPUR,NIP,JAIPUR,HARYANA,E
28.5103735,75.7311086,PARVEZ PUR,PVZ,BIKANER,HARYANA,E
28.3815817,75.9690787,SATNALI,STNL,BIKANER,HARYANA,E
28.4594965,77.0266383,SATROD,STD,BIKANER,HARYANA,E
28.9090375,75.6101793,SIWANI,SWNI,BIKANER,HARYANA,E
21.7557365,72.1473982,SOHANSARA,SAWN,BIKANER,HARYANA,E
29.5134611,75.1828417,SUCHAN KOTLI,SHN,BIKANER,HARYANA,E
29.0587757,76.085601,SUDHRANA,SDRA,BIKANER,HARYANA,E
28.3253679,76.0972685,ZERPUR PALI,ZP,BIKANER,HARYANA,E
31.1048294,77.1733901,AJHU,AHJ,FZR,HIMACHAL PRADESH,E
31.6705016,76.110264,AMB ANDAURA,AADR,UMB,HIMACHAL PRADESH,E
32.0510801,76.6352843,BAIJNATH PAPROLA,BJPL,FZR,HIMACHAL PRADESH,E
30.890309,77.0824831,BAROG,BOF,UMB,HIMACHAL PRADESH,E
32.1679519,75.9548061,BHARMAR,BRMR,FZR,HIMACHAL PRADESH,E
30.9744766,77.1968676,CHURAU TAKRALA,CHTL,UMB,HIMACHAL PRADESH,E
32.2806511,75.8487201,DALHOUSIE ROAD,DLR,FZR,HIMACHAL PRADESH,E
30.900018,77.0238739,DHARAMPUR HIMACHAL,DMP,UMB,HIMACHAL PRADESH,E
32.0043483,76.1513368,GULER,GULR,FZR,HIMACHAL PRADESH,E
30.8424015,76.971732,GUMMAN,GMM,UMB,HIMACHAL PRADESH,E
32.1046278,76.0381483,HARSAR DEHRI,HRDR,FZR,HIMACHAL PRADESH,E
32.0161959,76.2266379,JAWALA MUKHI ROAD,JMKR,FZR,HIMACHAL PRADESH,E
32.1424605,76.0040557,JAWANWALA SHEHAR,JWLS,FZR,HIMACHAL PRADESH,E
31.9889251,76.7894098,JOGINDER NAGAR,JDNX,FZR,HIMACHAL PRADESH,E
31.1024677,77.1598796,JUTOGH,JTO,UMB,HIMACHAL PRADESH,E
31.1048294,77.1733901,KANDAGHAT,KDZ,UMB,HIMACHAL PRADESH,E
32.1847102,75.66942,KANDRORI,KNDI,FZR,HIMACHAL PRADESH,E
32.097345,76.287207,KANGRA,KGRA,FZR,HIMACHAL PRADESH,E
32.0973725,76.287083,KANGRA MANDIR,KGMR,FZR,HIMACHAL PRADESH,E
30.9919349,77.1176394,KANOH,KANO,UMB,HIMACHAL PRADESH,E
31.0217444,77.103659,KATEHLEEGHAT,KEJ,UMB,HIMACHAL PRADESH,E
32.052115,76.2507181,KOPAR LEHAR,KPLR,FZR,HIMACHAL PRADESH,E
30.8527805,76.9944573,KOTI,KOTI,UMB,HIMACHAL PRADESH,E
31.1048294,77.1733901,KUMARHATTI ,KMTI,UMB,HIMACHAL PRADESH,E
32.0691107,76.0812879,MAGHRAJPURA,MGRP,FZR,HIMACHAL PRADESH,E
32.1083638,76.388643,NAGROTA,NGRT,FZR,HIMACHAL PRADESH,E
32.0521861,76.0913558,NAGROTA SURIAN,NGRS,FZR,HIMACHAL PRADESH,E
32.0136868,76.1160412,NANDPUR BATOLI,NDBT,FZR,HIMACHAL PRADESH,E
32.2806511,75.8487201,NURPUR ROAD,NUPR,FZR,HIMACHAL PRADESH,E
32.081533,76.5158544,PALAMPUR HIMACHAL,PLMX,FZR,HIMACHAL PRADESH,E
32.0564284,76.5653136,PUNCHRUKHI,PHRH,FZR,HIMACHAL PRADESH,E
31.1048294,77.1733901,RAI MEHATPUR,MTPR,UMB,HIMACHAL PRADESH,E
31.1048294,77.1733901,SALOGRA,SLR,UMB,HIMACHAL PRADESH,E
32.0922659,76.3448699,SAMLOTI,SMLT,FZR,HIMACHAL PRADESH,E
31.0390466,77.1245616,SHOGHI,SGS,UMB,HIMACHAL PRADESH,E
30.9083996,77.0983991,SOLAN,SOL,UMB,HIMACHAL PRADESH,E
30.8947003,77.004941,SONWARA,SWO,UMB,HIMACHAL PRADESH,E
32.0709267,76.4769585,SULAH,SLHP,FZR,HIMACHAL PRADESH,E
31.1048294,77.1733901,SUMMERHILL,SHZ,UMB,HIMACHAL PRADESH,E
31.1048294,77.1733901,TAKSAL,TSL,UMB,HIMACHAL PRADESH,E
32.2391905,75.9040872,TALARA ,TLRA,FZR,HIMACHAL PRADESH,E
31.1024677,77.1598796,TARADEVI,TVI,UMB,HIMACHAL PRADESH,E
33.7385853,75.1073614,ANANTNAG,ANT,FZR,JAMMU & KASHMIR,E
33.9118685,75.0187093,AVANTIPORA,ATPA,FZR,JAMMU & KASHMIR,E
33.778175,76.5761714,BAJALTA,BLJA,FZR,JAMMU & KASHMIR,E
34.220797,74.388395,BARAMULLA,BRML,FZR,JAMMU & KASHMIR,E
32.6391046,74.9164015,BARI BRAHMNA,BBMN,FZR,JAMMU & KASHMIR,E
33.7896211,75.0755989,BIJBAHERA,BJBA,FZR,JAMMU & KASHMIR,E
34.0386914,74.7364044,BUDGAM,BDGM,FZR,JAMMU & KASHMIR,E
32.4411053,75.4336534,BUDHI,BDHY,FZR,JAMMU & KASHMIR,E
32.4793941,75.3052303,CHAK DYALA,CKDL,FZR,JAMMU & KASHMIR,E
32.4615237,75.3587986,CHHAN ARORIAN,CHNR,FZR,JAMMU & KASHMIR,E
32.5048016,75.2137202,GHAGWAL,GHGL,FZR,JAMMU & KASHMIR,E
32.728279,74.8463709,HAMRE,HME,FZR,JAMMU & KASHMIR,E
32.4870219,75.2684582,HIRA NAGAR,HRNR,FZR,JAMMU & KASHMIR,E
33.9532202,74.9132958,KAKAPORA,KAPE,FZR,JAMMU & KASHMIR,E
32.7690441,75.1322687,MANWAL,MNVL,FZR,JAMMU & KASHMIR,E
32.8046987,75.0501716,MAZHOM,MJMA,FZR,JAMMU & KASHMIR,E
33.778175,76.5761714,PAMORE,PMPE,FZR,JAMMU & KASHMIR,E
33.778175,76.5761714,PANZGAM,PJGM,FZR,JAMMU & KASHMIR,E
34.165844,74.563267,PATTAN,PTTN,FZR,JAMMU & KASHMIR,E
34.0737784,74.8201306,QAZIGUND,QG,FZR,JAMMU & KASHMIR,E
33.6756624,75.1362711,SADURA,SDUA,FZR,JAMMU & KASHMIR,E
32.7236059,74.856082,SANGHAR,SGR,FZR,JAMMU & KASHMIR,E
34.257969,74.451218,SOPORE,SXZM,FZR,JAMMU & KASHMIR,E
34.0237098,74.8471493,SRINAGAR,SINA,FZR,JAMMU & KASHMIR,E
32.5723393,75.0213172,VIJAYPUR JAMMU,VJPJ,FZR,JAMMU & KASHMIR,E
23.6101808,85.2799354,BANDHUA,BNF,DHN,JHARKHAND,E
23.3645446,85.8567007,BANSJORA,BZS,DHN,JHARKHAND,E
23.7727728,85.956468,BERMO,BRMO,DHN,JHARKHAND,E
23.7566204,86.0551143,BHANDARIDAH,BHME,DHN,JHARKHAND,E
23.637049,85.371923,BHURKUNDA,BHKD,DHN,JHARKHAND,E
23.7300062,85.583106,CHAINPUR,CNPR,DHN,JHARKHAND,E
23.6101808,85.2799354,CHAUBE,CBH,DHN,JHARKHAND,E
23.6101808,85.2799354,CHAUDHURI BANDH,CDB,DHN,JHARKHAND,E
23.8138098,84.2029282,CHHIPADOHAR,CPDR,DHN,JHARKHAND,E
23.6101808,85.2799354,CHICHAKI,CCK,DHN,JHARKHAND,E
23.8000474,85.6587393,DANEA,DNEA,DHN,JHARKHAND,E
23.8071085,85.7638425,DUMRI BIHAR,DMBR,DHN,JHARKHAND,E
24.5009699,85.4659195,GUJHANDI,GJD,DHN,JHARKHAND,E
24.204235,84.870937,HENDEGIR,HNDR,DHN,JHARKHAND,E
24.38274,85.596411,HIRODIH,HRE,DHN,JHARKHAND,E
23.7458329,85.6262612,JAGESHWAR BIHAR,JGBR,DHN,JHARKHAND,E
23.7698072,85.9290971,JARANGDIH,JAN,DHN,JHARKHAND,E
23.349473,85.335656,KAJRAT NAVADIH,KYF,MGS,JHARKHAND,E
24.491971,86.6982699,KARKATTA,KRTA,MGS,JHARKHAND,E
23.7131412,85.5417529,KARMA HALT,KMHT,DHN,JHARKHAND,E
23.9287295,84.1466394,KECHKI,KCKI,DHN,JHARKHAND,E
24.4771871,83.9046317,KOSIARA,KVQ,MGS,JHARKHAND,E
23.7640758,84.3646592,KUMENDI,KMND,DHN,JHARKHAND,E
23.7896252,86.3961303,KUSUNDA,KDS,DHN,JHARKHAND,E
23.666829,84.797873,MAHUAMILAN,MMLN,DHN,JHARKHAND,E
23.8406795,86.2391996,MATARI,MRQ,DHN,JHARKHAND,E
23.374773,85.3354681,MCCLUSKIEGANJ,MGME,DHN,JHARKHAND,E
23.6101808,85.2799354,MERALGRAM,MQX,DHN,JHARKHAND,E
23.9320087,86.0770221,NIMIAGHAT,NMG,DHN,JHARKHAND,E
23.7910294,86.4299391,PHULWARITAND,PLJE,DHN,JHARKHAND,E
23.349473,85.335656,PRADHANKHUNTA JN.,PKA,DHN,JHARKHAND,E
24.1549351,84.0154976,RAJHURA,RHR,DHN,JHARKHAND,E
23.6101808,85.2799354,RAKHITPUR,RKJE,DHN,JHARKHAND,E
23.6101808,85.2799354,RAMNA,RMF,DHN,JHARKHAND,E
23.6791195,85.0601287,RAY,RAY,DHN,JHARKHAND,E
23.6101808,85.2799354,RICHUGHUDA,RCGT,DHN,JHARKHAND,E
24.4348782,85.5291784,SARMATAND,SMND,DHN,JHARKHAND,E
24.3750077,83.8405074,SAT BAHINI,SZF,MGS,JHARKHAND,E
23.6101808,85.2799354,SIGSIGI,SQS,MGS,JHARKHAND,E
22.6751434,85.6269052,SIJUA,SJA,DHN,JHARKHAND,E
23.6614423,86.4804643,SINDRI,SDBH,DHN,JHARKHAND,E
23.6101808,85.2799354,SINDRI BLOCK HUT,SDDH,DHN,JHARKHAND,E
23.6614423,86.4804643,SINDRI TOWN,SNDT,DHN,JHARKHAND,E
24.703776,85.119422,TANKUPPA,TKN,DHN,JHARKHAND,E
23.8115011,86.1341858,TELO,TELO,DHN,JHARKHAND,E
24.3410631,83.8348111,UNTARI ROAD,URD,MGS,JHARKHAND,E
22.6477594,86.4116657,BAKUDIH,BKLE,MLDT,JHARKHAND,E
24.857778,87.774167,BASUKINATH,BSKH,ASN,JHARKHAND,E
24.823079,87.8106655,BONIDANGA,BDAG,MLDT,JHARKHAND,E
23.7622372,86.572295,CHOTA AMBONA,CAM,ASN,JHARKHAND,E
23.349473,85.335656,DEOGHAR,DGHR,ASN,JHARKHAND,E
23.6101808,85.2799354,DHAMDHAMIA,DDX,MLDT,JHARKHAND,E
24.2895206,87.2552365,DUMKA,DUMK,ASN,JHARKHAND,E
23.4518359,84.6937014,GHORMARA,GRMA,ASN,JHARKHAND,E
23.7590229,86.6615124,KALUBATHAN,KAO,ASN,JHARKHAND,E
23.6101808,85.2799354,KALYANCHAWK,KXE,MLDT,JHARKHAND,E
24.4352676,85.528822,KARAMTALA,KRMA,MLDT,JHARKHAND,E
23.6408093,85.2696603,KARANPURATO,KPTO,MLDT,JHARKHAND,E
24.4756658,86.6434461,KUMARABAD ROHINI,KBQ,ASN,JHARKHAND,E
23.6101808,85.2799354,LACHMANPUR,LCME,ASN,JHARKHAND,E
22.798482,86.210538,MADANKATTA,MNC,ASN,JHARKHAND,E
23.6101808,85.2799354,MAHARAJPUR,MJP,MLDT,JHARKHAND,E
23.6101808,85.2799354,MAHESMUNDA,MMD,ASN,JHARKHAND,E
24.2913474,87.272524,MATHURAPUR,MUW,ASN,JHARKHAND,E
25.0310902,87.1670854,MUGMA,MMU,ASN,JHARKHAND,E
25.2423766,87.708908,SAKRIGALI,SLJ,MLDT,JHARKHAND,E
23.6101808,85.2799354,SANKARPUR,SNQ,ASN,JHARKHAND,E
23.6101808,85.2799354,TALJAHRI,TLJ,MLDT,JHARKHAND,E
23.7691154,86.701237,THAPARNAGAR,TNW,ASN,JHARKHAND,E
22.7048658,86.3219091,ASANBONI,ASB,KGP,JHARKHAND,E
23.6101808,85.2799354,BAKASPUR,BKPR,RNC,JHARKHAND,E
23.349473,85.335656,BALSIRING,BLRG,RNC,JHARKHAND,E
23.6101808,85.2799354,BANGURKELA,BGKA,CKP,JHARKHAND,E
22.6642375,84.9023974,BANO,BANO,RNC,JHARKHAND,E
22.7013159,85.7282627,BARABAMBOO,BRM,CKP,JHARKHAND,E
23.5677042,85.6481035,BARKIPONA,BRKP,RNC,JHARKHAND,E
23.6241344,85.4701081,BARLANGA,BLNG,RNC,JHARKHAND,E
23.642055,86.4468793,BHOJUDIH,BJE,ADA,JHARKHAND,E
23.6701732,86.41644,BHOWRAH,BCB,ADA,JHARKHAND,E
23.7411006,86.4226373,DALBHUMGARH,DVM,KGP,JHARKHAND,E
23.333021,85.3022819,DONGAPOSI,DPS,CKP,JHARKHAND,E
22.6477594,86.4116657,GALUDIH,GUD,KGP,JHARKHAND,E
22.7987584,86.0981876,GAMHARIA,GMH,CKP,JHARKHAND,E
23.3615969,85.5075091,GANGAGHAT,GAG,RNC,JHARKHAND,E
23.349776,85.6330848,GAUTAM DHARA,GATD,RNC,JHARKHAND,E
23.0613871,85.0437338,GOBINDPUR ROAD,GBX,RNC,JHARKHAND,E
22.50575,85.382086,GOILKERA,GOL,CKP,JHARKHAND,E
23.6101808,85.2799354,GOLA ROAD,GRE,RNC,JHARKHAND,E
23.8025889,86.4347507,GUA,GX,CKP,JHARKHAND,E
22.9958303,86.0922984,GUNDABIHAR,GDBR,RNC,JHARKHAND,E
23.500005,85.760082,HARUBERA,HRBR,RNC,JHARKHAND,E
23.658372,86.138416,HESALONG,HNSL,RNC,JHARKHAND,E
23.0717816,86.0786848,JHIMRI,JHMR,RNC,JHARKHAND,E
24.1840649,86.3083617,JHINKPANI,JNK,CKP,JHARKHAND,E
23.3419221,85.6083719,JONAH,JONA,RNC,JHARKHAND,E
23.6101808,85.2799354,KANAROAN, KNRN,RNC,JHARKHAND,E
23.6101808,85.2799354,KANDRA,KND,CKP,JHARKHAND,E
23.1214218,85.1323892,KARRA,KRRA,RNC,JHARKHAND,E
23.6101808,85.2799354,KENDPOSI,KNPS,CKP,JHARKHAND,E
23.7976659,86.2023591,KHANOODIH,KNF,ADA,JHARKHAND,E
23.3645174,85.7618891,KITA,KITA,RNC,JHARKHAND,E
24.1939658,86.3118297,KOKPARA,KKPR,KGP,JHARKHAND,E
22.87571,86.067317,KUNKI,KZU,CKP,JHARKHAND,E
23.9623057,86.7996974,KURKURA,KRKR,RNC,JHARKHAND,E
23.0979717,85.9891117,LATEMDA,LTMD,RNC,JHARKHAND,E
23.7956531,86.4303859,LAYABAD,LYD,ADA,JHARKHAND,E
23.2230283,85.1998115,LODHMA,LOM,RNC,JHARKHAND,E
22.6175866,85.5664574,LOTAPAHAR,LPH,CKP,JHARKHAND,E
23.5747355,85.6260547,MAEL,MAEL,RNC,JHARKHAND,E
22.7146692,84.9414527,MAHABUANG,MCZ,RNC,JHARKHAND,E
22.7570139,85.8797997,MAHALIMARUP,MMV,CKP,JHARKHAND,E
23.7797467,86.2969214,MALKERA,MLQ,ADA,JHARKHAND,E
22.2022297,85.672607,MALUKA,MLKA,CKP,JHARKHAND,E
23.7473649,86.2706003,MOHUDA,MHQ,ADA,JHARKHAND,E
23.3516952,85.3763584,NAMKUM,NKM,RNC,JHARKHAND,E
23.349473,85.335656,NAWAGAON,NXN,CKP,JHARKHAND,E
22.9946947,86.1438132,NIMDIH,NIM,ADA,JHARKHAND,E
22.4485021,84.9158098,ORGA,ORGA,RNC,JHARKHAND,E
23.6101808,85.2799354,PAKRA,PKC,RNC,JHARKHAND,E
22.6337481,85.8073747,PANDRASALI,PRSL,CKP,JHARKHAND,E
22.7960659,86.1831442,PARBA TONIA,PBB,RNC,JHARKHAND,E
22.9197906,84.9512887,POKLA,PKF,RNC,JHARKHAND,E
22.4468496,85.2547485,PSAITA,PST,CKP,JHARKHAND,E
23.5973838,86.0887759,RADHAGAON,RDF,ADA,JHARKHAND,E
23.6101808,85.2799354,RAMKANALI,RKI,ADA,JHARKHAND,E
24.8564905,86.3024981,SHEWBABUDIH,SBW,ADA,JHARKHAND,E
23.349473,85.335656,SILLI,SLF,RNC,JHARKHAND,E
23.6873532,85.3204455,SINGHPOKHARIA,SIPA,CKP,JHARKHAND,E
23.349473,85.335656,SONUA,SWR,CKP,JHARKHAND,E
23.6545592,86.4404426,SUDAMDIH,SDMD,ADA,JHARKHAND,E
23.6545592,86.4404426,SUDAMDIH,SND,RNC,JHARKHAND,E
23.6101808,85.2799354,TALABURU,TABU,CKP,JHARKHAND,E
23.6816153,86.335271,TALGORIA,TLE,ADA,JHARKHAND,E
23.6101808,85.2799354,TANGERBASLI,TGB,RNC,JHARKHAND,E
23.3714748,85.3350511,TATI,TAX,RNC,JHARKHAND,E
23.370233,85.4365899,TATISILWAI,TIS,RNC,JHARKHAND,E
23.1321367,85.9307456,TIRULDIH,TUL,RNC,JHARKHAND,E
23.349473,85.335656,TORANG,TRAN,RNC,JHARKHAND,E
23.3455669,85.1172897,TUPKADIH,TKX,ADA,JHARKHAND,E
17.4328434,78.4932864,BABLAD,BBD,SUR,KARNATAKA,E
15.3172775,75.7138884,GOUDGAON,GDGN,SUR,KARNATAKA,E
12.9811156,77.6054813,HIRENDURU,HQR,SUR,KARNATAKA,E
17.3526926,76.6465958,HUNSIHADGIL,HHD,SUR,KARNATAKA,E
17.357512,76.4701358,KULALI,KUI,SUR,KARNATAKA,E
12.8756548,77.6586603,MARTUR,MR,SUR,KARNATAKA,E
12.9745582,77.5260222,SAVALGI,SVG,SUR,KARNATAKA,E
12.9180561,77.6203784,CHEGUNTA                                          ,CGTA,GTL,KARNATAKA,E
16.3368,77.344018,CHIKSUGUR                                         ,CK  ,GTL,KARNATAKA,E
18.5015415,73.826744,HAGARI                                            ,HGI ,GTL,KARNATAKA,E
17.9750185,77.3404858,HALBARGA                                          ,HBU ,SC        ,KARNATAKA,E
18.1582772,77.1937162,KALGUPUR                                          ,KCP ,SC        ,KARNATAKA,E
18.2408389,77.1788911,KAMAL NAGAR                                       ,KMNR,SC        ,KARNATAKA,E
12.908742,77.5640651,KURGUNTA                                          ,KQT ,SC        ,KARNATAKA,E
16.6696413,77.1889544,LINGERI                                           ,LGRE,GTL,KARNATAKA,E
12.3040543,76.6777204,MARCHETAL                                       ,MRC ,GTL,KARNATAKA,E
15.7777762,74.4634341,MATMARI                                           ,MTU ,GTL,KARNATAKA,E
13.1000851,77.5838643,NAWANDGI                                          ,NAW ,SC        ,KARNATAKA,E
16.8036473,77.0680489,THANGUNDI                                         ,TGDE,GTL,KARNATAKA,E
12.819505,74.841539,ULLAL                              ,ULL  ,PGT,KARNATAKA,E
12.9890764,77.5939387,ADIHALLI,ADHL,MYS,KARNATAKA,E
12.9715987,77.5945627,AJJAMPUR,AJP,MYS,KARNATAKA,E
12.6221717,76.3905868,AKKIHEBBALU,AKK,MYS,KARNATAKA,E
13.2007029,77.7078983,AMARGOL,AGL,UBL,KARNATAKA,E
13.264821,76.7117357,AMMASANDRA,AMSA,MYS,KARNATAKA,E
12.830246,77.5880396,AMRITAPURA,AMC,MYS,KARNATAKA,E
14.0747367,75.2097577,ANANDAPURAM,ANF,MYS,KARNATAKA,E
12.723515,77.71054,ANEKAL ROAD,AEK,SBC,KARNATAKA,E
12.9106236,77.6249846,ANNIGERI,NGR,UBL,KARNATAKA,E
12.2739076,76.6355846,ASHOKAPURAM,AP,MYS,KARNATAKA,E
13.1431763,76.2289381,BAGESHPURA,BGPA,MYS,KARNATAKA,E
13.0147708,77.5540191,BALAGANUR,BLR,UBL,KARNATAKA,E
12.3074274,76.6498816,BALENAHALLI,BAHI,MYS,KARNATAKA,E
13.4992765,76.0253236,BALLEKERE,BLKR,MYS,KARNATAKA,E
13.0084721,77.6944362,BANASANDRA,BSN,MYS,KARNATAKA,E
12.918467,77.6297808,BANAVAR,BVR,MYS,KARNATAKA,E
15.4064852,75.9417879,BANNIKOPPA,BNA,UBL,KARNATAKA,E
15.426287,75.628103,BANTAWALA,BNTL,MYS,KARNATAKA,E
16.4800631,75.828247,BASAVANABAGEWADI ROAD.,BSRX,UBL,KARNATAKA,E
12.3166855,76.6453031,BELAGOLA,BLGA,MYS,KARNATAKA,E
15.6393169,74.5072969,BHANAPUR,BNP,UBL,KARNATAKA,E
12.8006739,77.390173,BIDADI,BID,SBC,KARNATAKA,E
12.8425262,78.2500174,BISANATTAM,BSM,SBC,KARNATAKA,E
12.9886406,77.593529,BOMMAGUNDANAKERE,BOMN,MYS,KARNATAKA,E
15.3172775,75.7138884,BYADRAHALLI,BDRL,SBC,KARNATAKA,E
13.0386761,77.5343585,BYATARAYANAHALLI,BFW,SBC,KARNATAKA,E
15.398668,74.3336949,CASTLE ROCK,CLR,UBL,KARNATAKA,E
12.9068941,77.6283559,CHALGERI,CLI,MYS,KARNATAKA,E
15.8670259,74.6135187,CHALLAKERE,CHKE,MYS,KARNATAKA,E
15.3172775,75.7138884,CHANNASANDRA,CSDR,SBC,KARNATAKA,E
13.0279399,77.5409609,CHIKBALLAPUR,CBP,SBC,KARNATAKA,E
16.3688743,74.7693202,CHIKODI ROAD,CKR,UBL,KARNATAKA,E
13.036896,77.5210782,CHINCHILI,CNC,UBL,KARNATAKA,E
15.3172775,75.7138884,DAROJI,DAJ,UBL,KARNATAKA,E
12.8665983,74.8794099,DESUR,DUR,UBL,KARNATAKA,E
13.2493826,77.7155519,DEVANAHALLI,DHL,SBC,KARNATAKA,E
12.9855475,77.8314075,DEVANGONTHI,DKN,SBC,KARNATAKA,E
12.7843809,77.7519779,DEVANUR,VNR,MYS,KARNATAKA,E
16.2038678,77.3451568,DEVARAGUDDA,DAD,MYS,KARNATAKA,E
15.3172775,75.7138884,DEVARAPALLE,DPE,SBC,KARNATAKA,E
15.4530067,74.5752993,DEVARAYI,DEV,UBL,KARNATAKA,E
13.2794162,77.5508361,DODBALLAPUR,DBU,SBC,KARNATAKA,E
13.2165245,77.3522742,DODBELE,DBL,SBC,KARNATAKA,E
12.9141346,77.4171501,DONIGAL *,DOGL,MYS,KARNATAKA,E
12.914954,77.594891,GADIGANUR,GNR,UBL,KARNATAKA,E
15.347825,76.2476857,GINIGERA,GIN,UBL,KARNATAKA,E
13.1455636,77.4172962,GOLHALLI,GHL,SBC,KARNATAKA,E
13.3214185,76.9393158,GUBBI,GBB,MYS,KARNATAKA,E
12.927369,77.6158307,GUDIGERI,GDI,MYS,KARNATAKA,E
15.4908917,73.8877881,GULEDGUDDA ROAD,GED,UBL,KARNATAKA,E
15.5435435,74.4801298,GUNJI,GNJ,UBL,KARNATAKA,E
12.2887809,76.6171956,HABBANGHATTA,HHT,MYS,KARNATAKA,E
12.5657137,76.9811261,HANAKERE,HNK,SBC,KARNATAKA,E
12.9365607,77.5765419,HARLAPUR,RLP,UBL,KARNATAKA,E
13.1082657,77.606361,HEBBAL,HEB,SBC,KARNATAKA,E
12.957527,77.577512,HEBSUR,HBS,UBL,KARNATAKA,E
12.8133287,77.7110678,HEELALIGE,HLE,SBC,KARNATAKA,E
12.8483442,77.4187138,HEJJALA,HJL,SBC,KARNATAKA,E
13.2808317,77.1889975,HIREHALLI,HHL,SBC,KARNATAKA,E
14.2241455,76.3946118,HOLALKERE,HLK,MYS,KARNATAKA,E
15.3172775,75.7138884,HOLEALUR,HLAR,UBL,KARNATAKA,E
15.5207522,75.5767025,HOMBAL,HBL,UBL,KARNATAKA,E
15.3172775,75.7138884,HONNAVALLI ROAD,HVL,MYS,KARNATAKA,E
12.5701985,76.3616488,HOSAAGRAHARA,HAH,MYS,KARNATAKA,E
13.8636868,76.1336815,HOSADURGA ROAD,HSD,MYS,KARNATAKA,E
15.4283493,75.5291022,HULKOTI,LKT,UBL,KARNATAKA,E
12.9202161,77.6705133,JADRAMAKUNTI,JRKT,UBL,KARNATAKA,E
13.0262988,77.5582736,JUMNAL,JML,UBL,KARNATAKA,E
15.3172775,75.7138884,KADAGARAVALLI,KVGL,MYS,KARNATAKA,E
15.3637718,75.1543255,KADAKOLA,KDO,MYS,KARNATAKA,E
